"objectcode","objectdescription","recologyid","roadwayid","roadwaydescription","cantype","cancolor","streetcorner","onstreet","fromstreet","installeddate","removeddate","latitude","longitude","globalid","objectid","point","analysis_neighborhood","supervisor_district","data_as_of","data_loaded_at"
"CAN-2337665","2001 HAYES ST","10512337665","6831000","HAYES ST: ASHBURY ST - CLAYTON ST","RENAISSANCE / METAL",,,"HAYES ST","ASHBURY ST","1992/07/14 12:00:00 AM",,"37.773811","-122.447948","a30041af-f892-4542-8df4-0a42b5f418fd","448","POINT (-122.447948 37.773811)","Lone Mountain/USF","5","2026/02/05 12:00:00 AM","2026/02/14 09:35:07 AM"
"CAN-5744586","2000 OFARRELL ST","10515744586","9739000","OFARRELL ST: PIERCE ST - SCOTT ST","CEMENT / CONCRETE",,"NW","OFARRELL ST","PIERCE ST","2015/04/20 12:00:00 AM",,"37.782908","-122.436064","2e32ad91-ec0e-4ce6-a990-50af28138bc2","846","POINT (-122.436064 37.782908)","Western Addition","5","2026/02/06 12:00:00 AM","2026/02/14 09:35:07 AM"
"CAN-1375658","SEVEN SEAS AVE: BRUTON ST - CRAVATH ST | CCAN","10011375658","14320000","SEVEN SEAS AVE: BRUTON ST - CRAVATH ST","RENAISSANCE / METAL",,,"SEVEN SEAS AVE","BRUTON ST","2024/10/28 12:00:00 AM",,,,"0870bd1a-3881-406a-b86a-3841ac4ad3b2","1699",,,,"2025/11/11 12:00:00 AM","2026/02/14 09:35:07 AM"
"CAN-6964535","TRADE WINDS AVE: TREASURE ISLAND RD - SEVEN SEAS AVE | CCAN",,"14257000","TRADE WINDS AVE: TREASURE ISLAND RD - SEVEN SEAS AVE","RENAISSANCE / METAL","grey","NW","TRADE WINDS AVE","TREASURE ISLAND RD",,,,,"7f6388ae-34d8-459d-a79b-161c86085350","2896",,,,"2026/02/05 12:00:00 AM","2026/02/14 09:35:07 AM"
"CAN-6964538","TRADE WINDS AVE: TREASURE ISLAND RD - SEVEN SEAS AVE | CCAN",,"14257000","TRADE WINDS AVE: TREASURE ISLAND RD - SEVEN SEAS AVE","RENAISSANCE / METAL",,"SE","TRADE WINDS AVE","TREASURE ISLAND RD",,,,,"ad2cbec5-a07e-4c38-b91a-7e9955541a84","2900",,,,"2026/02/06 12:00:00 AM","2026/02/14 09:35:07 AM"
"CAN-6964536","TRADE WINDS AVE: TREASURE ISLAND RD - SEVEN SEAS AVE | CCAN",,"14257000","TRADE WINDS AVE: TREASURE ISLAND RD - SEVEN SEAS AVE","RENAISSANCE / METAL",,"SW","TRADE WINDS AVE","TREASURE ISLAND RD",,,,,"367ccfb4-ccd6-49f0-bfb0-e831b33776f6","2902",,,,"2026/02/06 12:00:00 AM","2026/02/14 09:35:07 AM"
"CAN-6964539","TRADE WINDS AVE: TREASURE ISLAND RD - SEVEN SEAS AVE | CCAN",,"14257000","TRADE WINDS AVE: TREASURE ISLAND RD - SEVEN SEAS AVE","RENAISSANCE / METAL",,"W","TRADE WINDS AVE","TREASURE ISLAND RD",,,,,"e0fbe5c8-e5f7-4cfc-8a91-8cfa94385ea0","2903",,,,"2026/02/06 12:00:00 AM","2026/02/14 09:35:07 AM"
"CAN-5708557","28TH AVE / FULTON ST | CCAN","10515708557","27527000","28th Ave / Fulton St","RENAISSANCE / METAL","green","SW","28TH AVE","FULTON ST","2014/12/01 12:00:00 AM",,"37.772423","-122.487398","b76cb89b-b201-41c1-ad60-1cc0e142eb88","2277","POINT (-122.487398 37.772423)","Outer Richmond","1","2026/02/06 12:00:00 AM","2026/02/14 09:35:07 AM"
"CAN-6156723","28TH AVE / FULTON ST | CCAN","10516156723","27527000","28th Ave / Fulton St","RENAISSANCE / METAL","green","NW","28TH AVE","FULTON ST","2018/09/19 12:00:00 AM",,"37.772423","-122.487398","83bb3981-7b42-498a-b608-f4ff61221062","2495","POINT (-122.487398 37.772423)","Outer Richmond","1","2026/02/06 12:00:00 AM","2026/02/14 09:35:07 AM"
"CAN-1364108","2500 WASHINGTON ST","10011364108","13440000","WASHINGTON ST: FILLMORE ST - STEINER ST","RENAISSANCE / METAL",,"W","WASHINGTON ST","FILLMORE ST","2024/05/01 12:00:00 AM",,"37.791676","-122.434579","091671ee-2582-4d4b-9d16-8989af9cf29b","363","POINT (-122.434579 37.791676)","Pacific Heights","2","2026/01/14 12:00:00 AM","2026/02/14 09:35:07 AM"
"CAN-637553","1899 UNION ST","1001637553","12867000","UNION ST: OCTAVIA ST - LAGUNA ST","RENAISSANCE / METAL",,"SW","UNION ST","OCTAVIA ST","2000/12/01 12:00:00 AM","2025/12/23 12:00:00 AM","37.79762","-122.430326","27381d31-77b7-4979-b7fa-bd025265ef2c","1115","POINT (-122.430326 37.79762)","Marina","2","2025/12/24 12:00:00 AM","2026/02/14 09:35:07 AM"
"CAN-5849054","FOERSTER ST / MONTEREY BLVD | CCAN","10515849054","22232000","Foerster St / Monterey Blvd","CEMENT / CONCRETE",,"SE","FOERSTER ST","MONTEREY BLVD","2016/03/23 12:00:00 AM",,"37.731543","-122.448866","0d502b12-1268-4878-9b98-9b098089f8fc","2368","POINT (-122.448866 37.731543)","West of Twin Peaks","7","2026/01/30 12:00:00 AM","2026/02/14 09:35:07 AM"
"CAN-6937890","FOERSTER ST / MONTEREY BLVD | CCAN","10516937890","22232000","Foerster St / Monterey Blvd","RENAISSANCE / METAL",,"NW","FOERSTER ST","MONTEREY BLVD","2025/03/18 12:00:00 AM",,"37.731543","-122.448866","1f492f13-af9e-432d-9ff7-53b097493f87","2783","POINT (-122.448866 37.731543)","West of Twin Peaks","7","2025/12/09 12:00:00 AM","2026/02/14 09:35:07 AM"
"CAN-6600266","50 IRVING ST","10516600266","7278000","IRVING ST: ARGUELLO BLVD - 02ND AVE","RENAISSANCE / METAL",,"NE","IRVING ST","ARGUELLO BLVD","2022/05/01 12:00:00 AM",,"37.764501","-122.458624","e4244396-ae88-4b33-a687-ff5f1bce70ab","2935","POINT (-122.458624 37.764501)","Inner Sunset","7","2026/02/12 12:00:00 AM","2026/02/14 09:35:07 AM"
"CAN-6266514","301 DIVISADERO ST","10516266514","4800101","DIVISADERO ST: PAGE ST - OAK ST","RENAISSANCE / METAL",,"NW","DIVISADERO ST","PAGE ST","2019/09/13 12:00:00 AM",,"37.772329","-122.437419","153e5b07-ff47-4722-b207-f7ecc92e8447","1034","POINT (-122.437419 37.772329)","Haight Ashbury","5","2026/01/17 12:00:00 AM","2026/02/14 09:35:07 AM"
"CAN-5522396","4301 03RD ST","10515522396","207101","03RD ST: JERROLD AVE \ NEWHALL ST - KIRKWOOD AVE","RENAISSANCE / METAL","Green","SE","03RD ST","JERROLD AVE \ NEWHALL ST","2013/07/01 12:00:00 AM",,"37.738422","-122.389209","9de03a0a-7307-4abe-8ddf-40ada976eea7","733","POINT (-122.389209 37.738422)","Bayview Hunters Point","10","2025/12/20 12:00:00 AM","2026/02/14 09:35:07 AM"
"CAN-887943","1391 HAIGHT ST","1051887943","6617000","HAIGHT ST: CENTRAL AVE - MASONIC AVE","CEMENT / CONCRETE",,,"HAIGHT ST","CENTRAL AVE","1988/01/01 12:00:00 AM",,"37.77013","-122.444986","e157d615-9cda-443c-adcf-f2ace7cf4c19","1368","POINT (-122.444986 37.77013)","Haight Ashbury","5","2026/01/01 12:00:00 AM","2026/02/14 09:35:07 AM"
"CAN-6083448","1100 SANCHEZ ST","10516083448","11529000","SANCHEZ ST: 24TH ST - JERSEY ST","RENAISSANCE / METAL",,,"SANCHEZ ST","24TH ST","2018/02/01 12:00:00 AM",,"37.751542","-122.429725","8bc8b8c4-6b9a-40eb-a4d0-faa472769b6f","963","POINT (-122.429725 37.751542)","Noe Valley","8","2025/08/08 12:00:00 AM","2026/02/14 09:35:07 AM"
"CAN-597807","2298 LOMBARD ST","1001597807","8461201","LOMBARD ST: STEINER ST - PIERCE ST","RENAISSANCE / METAL",,,"LOMBARD ST","STEINER ST","2000/01/01 12:00:00 AM",,"37.79961","-122.439086","bd4b728a-5f6e-479b-b2bb-e9369124babb","911","POINT (-122.439086 37.79961)","Marina","2","2025/08/08 12:00:00 AM","2026/02/14 09:35:07 AM"
"CAN-5369467","14TH AVE / MORAGA ST | CCAN","10515369467","27139000","14th Ave / Moraga St","RENAISSANCE / METAL",,"W","14TH AVE","MORAGA ST","2012/04/17 12:00:00 AM",,"37.756352","-122.470926","80d920ec-06c5-48a4-bef3-620016311d03","2187","POINT (-122.470926 37.756352)","Inner Sunset","7","2026/01/30 12:00:00 AM","2026/02/14 09:35:07 AM"
"CAN-5707666","CONNECTICUT ST / WISCONSIN ST | CCAN","10515707666","28098000","Connecticut St / Wisconsin St","CEMENT / CONCRETE","Green","NE","CONNECTICUT ST","WISCONSIN ST","2014/12/01 12:00:00 AM",,"37.753685","-122.398593","f4781721-cef5-40b6-9170-2580d40b48e4","2262","POINT (-122.398593 37.753685)","Potrero Hill","10","2025/12/19 12:00:00 AM","2026/02/14 09:35:07 AM"
"CAN-1110055","FRONT ST / SACRAMENTO ST | CCAN","10011110055","24691000","Front St / Sacramento St","CEMENT / CONCRETE",,,"FRONT ST","SACRAMENTO ST","2015/06/19 12:00:00 AM",,"37.794284","-122.39897","7be8ca4d-2183-41cb-b923-5abf4706de06","1490","POINT (-122.39897 37.794284)","Financial District/South Beach","3","2025/12/05 12:00:00 AM","2026/02/14 09:35:07 AM"
"CAN-606152","2300 HYDE ST","1001606152","7145000","HYDE ST: LOMBARD ST - CHESTNUT ST","RENAISSANCE / METAL","green","N","HYDE ST","LOMBARD ST","2000/01/01 12:00:00 AM",,"37.802202","-122.419495","50ea2001-f688-4d5b-9202-83e561fd865c","955","POINT (-122.419495 37.802202)","Russian Hill","3","2025/11/20 12:00:00 AM","2026/02/14 09:35:07 AM"
"CAN-3289444","23RD ST / UTAH ST | CCAN","10513289444","23730000","23rd St / Utah St","RENAISSANCE / METAL","Green","SE","23RD ST","UTAH ST","1998/07/15 12:00:00 AM",,"37.754337","-122.405454","00194a39-7834-45ad-9ad1-bfe4aa248c8b","1893","POINT (-122.405454 37.754337)","Mission","10","2025/12/31 12:00:00 AM","2026/02/14 09:35:07 AM"
"CAN-3289790","23RD ST / UTAH ST | CCAN","10513289790","23730000","23rd St / Utah St","RENAISSANCE / METAL","Green","SE","23RD ST","UTAH ST","1998/07/15 12:00:00 AM",,"37.754337","-122.405454","2aafca84-5d95-46a5-8944-0119599d7400","1894","POINT (-122.405454 37.754337)","Mission","10","2026/02/12 12:00:00 AM","2026/02/14 09:35:07 AM"
"CAN-1090364","2098 LOMBARD ST","10011090364","8459201","LOMBARD ST: WEBSTER ST - FILLMORE ST","CEMENT / CONCRETE","green","NE","LOMBARD ST","WEBSTER ST","2014/12/01 12:00:00 AM",,"37.80003","-122.435779","9aa057dc-2e22-4188-b71f-aa6f761a2821","104","POINT (-122.435779 37.80003)","Marina","2","2026/01/22 12:00:00 AM","2026/02/14 09:35:07 AM"
"CAN-1179357","485 OTSEGO AVE","10511179357","10054000","OTSEGO AVE: ONONDAGA AVE - ONEIDA AVE","RENAISSANCE / METAL",,"E","OTSEGO AVE","ONONDAGA AVE","1988/01/01 12:00:00 AM",,"37.721187","-122.44132","18723366-d557-499b-a882-cdbc4c04ddf5","168","POINT (-122.44132 37.721187)","Outer Mission","11","2026/01/30 12:00:00 AM","2026/02/14 09:35:07 AM"
"CAN-1393503","22 06TH ST","10011393503","326000","06TH ST: GOLDEN GATE AVE \ MARKET ST  - STEVENSON ST","RENAISSANCE / METAL",,"NW","06TH ST","GOLDEN GATE AVE \ MARKET ST \ TAYLOR ST","2025/06/13 12:00:00 AM",,"37.781675","-122.410167","b41da961-c460-4077-978e-29dc6ffc2f0a","408","POINT (-122.410167 37.781675)","South of Market","6","2026/01/06 12:00:00 AM","2026/02/14 09:35:07 AM"
"CAN-5707633","3101 MISSION","10515707633","2489201","CESAR CHAVEZ ST: CAPP ST \ MISSION ST - BARTLETT ST","RENAISSANCE / METAL",,,"CESAR CHAVEZ ST","CAPP ST \ MISSION ST","2014/12/01 12:00:00 AM",,"37.748329","-122.418705","754be44f-578f-4dee-96a5-f9bd728ba404","798","POINT (-122.418705 37.748329)","Mission","9","2025/12/16 12:00:00 AM","2026/02/14 09:35:07 AM"
"CAN-998971","600 BATTERY ST","1001998971","2761000","BATTERY ST: JACKSON ST - PACIFIC AVE","RENAISSANCE / METAL","green","E","BATTERY ST","JACKSON ST","2011/11/01 12:00:00 AM",,"37.796812","-122.400618","c201e0d9-de06-4e24-84e9-f704f8723a9b","1387","POINT (-122.400618 37.796812)","Financial District/South Beach","3","2026/01/16 12:00:00 AM","2026/02/14 09:35:07 AM"
"CAN-5254156","30TH AVE / GEARY BLVD | CCAN","10515254156","27840000","30th Ave / Geary Blvd","RENAISSANCE / METAL",,"NE","30TH AVE","GEARY BLVD","2011/06/02 12:00:00 AM",,"37.77984","-122.490097","b352391c-67fe-4e43-ae17-4f3f590a21b1","2153","POINT (-122.490097 37.77984)","Outer Richmond","1","2025/11/13 12:00:00 AM","2026/02/14 09:35:07 AM"
"CAN-840694","30TH AVE / GEARY BLVD | CCAN","1051840694","27840000","30th Ave / Geary Blvd","RENAISSANCE / METAL",,"SW","30TH AVE","GEARY BLVD","1988/01/01 12:00:00 AM",,"37.77984","-122.490097","84b410f7-6280-41bb-8ad1-335711abe4da","2811","POINT (-122.490097 37.77984)","Outer Richmond","1","2025/11/13 12:00:00 AM","2026/02/14 09:35:07 AM"
"CAN-6600837","1850 IRVING ST","10516600837","7296000","IRVING ST: 19TH AVE - 20TH AVE","RENAISSANCE / METAL",,"NE","IRVING ST","19TH AVE","2022/05/01 12:00:00 AM",,"37.763682","-122.477955","a4f6c3aa-21b7-4d39-b1cb-dd751791b8e8","1193","POINT (-122.477955 37.763682)","Sunset/Parkside","4","2026/01/09 12:00:00 AM","2026/02/14 09:35:07 AM"
"CAN-587188","3595 CALIFORNIA ST","1051587188","3569000","CALIFORNIA ST: LOCUST ST - SPRUCE ST","RENAISSANCE / METAL",,"NW","CALIFORNIA ST","LOCUST ST","1988/01/01 12:00:00 AM",,"37.786243","-122.453185","6e9a5b26-d266-46d8-96a3-0e4406d82ba3","885","POINT (-122.453185 37.786243)","Presidio Heights","2","2026/02/11 12:00:00 AM","2026/02/14 09:35:07 AM"
"CAN-1153188","GEARY ST / STOCKTON ST | CCAN","10011153188","24901000","Geary St / Stockton St","CEMENT / CONCRETE",,"SE","GEARY ST","STOCKTON ST","2017/02/22 12:00:00 AM",,"37.787568","-122.40659","25ef5f8f-de8c-4fb4-928b-7b5beddd1613","1528","POINT (-122.40659 37.787568)","Financial District/South Beach","3","2026/01/22 12:00:00 AM","2026/02/14 09:35:07 AM"
"CAN-5658224","292 CHURCH ST","10515658224","4010000","CHURCH ST: MARKET ST - 15TH ST","RENAISSANCE / METAL",,,"CHURCH ST","MARKET ST","2014/07/20 12:00:00 AM",,"37.766334","-122.429037","41cf0bb1-0831-42f3-ae3d-c88baacdebdc","759","POINT (-122.429037 37.766334)","Castro/Upper Market","8","2025/08/08 12:00:00 AM","2026/02/14 09:35:07 AM"
"CAN-6535348","48TH AVE: GREAT HWY \ TARAVAL ST - GREAT HWY \ ULLOA ST | CCAN","10516535348","02078000","48TH AVE: GREAT HWY \ TARAVAL ST - GREAT HWY \ ULLOA ST","RENAISSANCE / METAL",,"NW","48TH AVE","GREAT HWY \ TARAVAL ST","2021/10/20 12:00:00 AM",,"37.740746","-122.506688","e2737dc3-dd3a-4ae3-a412-bb00afc32e40","2929","POINT (-122.506688 37.740746)","Sunset/Parkside","4","2026/02/12 12:00:00 AM","2026/02/14 09:35:07 AM"
"CAN-770644","EUCALYPTUS DR / FOREST VIEW DR | CCAN","1051770644","23125000","Eucalyptus Dr / Forest View Dr","CEMENT / CONCRETE",,"SW","EUCALYPTUS DR","FOREST VIEW DR","1988/01/01 12:00:00 AM",,"37.73108","-122.483545","96a8c684-5dd5-471e-bcbb-003f510e5a2a","2797","POINT (-122.483545 37.73108)","Lakeshore","4","2026/01/23 12:00:00 AM","2026/02/14 09:35:07 AM"
"CAN-1257211","KEARNY ST / WASHINGTON ST | CCAN","10011257211","24774000","Kearny St / Washington St","CEMENT / CONCRETE",,,"KEARNY ST","WASHINGTON ST","2020/07/21 12:00:00 AM",,"37.795327","-122.404957","3af7e656-70ba-4a0c-9ccc-227bfa7eda64","1602","POINT (-122.404957 37.795327)","Chinatown","3","2025/12/10 12:00:00 AM","2026/02/14 09:35:07 AM"
"CAN-5706643","03RD ST / 22ND ST | CCAN","10515706643","23555000","03rd St / 22nd St","RENAISSANCE / METAL","Black","SW","03RD ST","22ND ST","2014/12/01 12:00:00 AM",,"37.75794","-122.388316","2032b55b-9204-441b-8f3a-db32976efc5f","2247","POINT (-122.388316 37.75794)","Potrero Hill","10","2025/12/22 12:00:00 AM","2026/02/14 09:35:07 AM"
"CAN-6274773","03RD ST / 22ND ST | CCAN","10516274773","23555000","03rd St / 22nd St","RENAISSANCE / METAL","black","NE","03RD ST","22ND ST","2019/08/01 12:00:00 AM",,"37.75794","-122.388316","1a9519d6-acd9-4e4e-9ccc-6e6573906d7a","2572","POINT (-122.388316 37.75794)","Potrero Hill","10","2025/12/22 12:00:00 AM","2026/02/14 09:35:07 AM"
"CAN-1264399","ESSEX ST / FOLSOM ST | CCAN","10011264399","24524000","Essex St / Folsom St","RENAISSANCE / METAL",,"NE","ESSEX ST","FOLSOM ST","2020/10/08 12:00:00 AM",,"37.786379","-122.395645","35593d1c-fc06-4150-8335-40afa3356934","1620","POINT (-122.395645 37.786379)","Financial District/South Beach","6","2025/11/14 12:00:00 AM","2026/02/14 09:35:07 AM"
"CAN-1201474","LAGUNA ST / MARINA BLVD | CCAN","10011201474","26759000","Laguna St / Marina Blvd","RENAISSANCE / METAL",,"NE","LAGUNA ST","MARINA BLVD","2018/11/09 12:00:00 AM",,"37.8052","-122.432091","3ff0544f-ed42-4d44-9b1f-f3150cdfca53","1553","POINT (-122.432091 37.8052)","Marina","2","2025/11/11 12:00:00 AM","2026/02/14 09:35:07 AM"
"CAN-6773022","18TH ST / MISSOURI ST | CCAN","10516773022","23678000","18th St / Missouri St","CEMENT / CONCRETE","Green","NE","18TH ST","MISSOURI ST","2023/09/13 12:00:00 AM",,"37.76258","-122.396527","b9af22a3-2e7d-4fb2-9697-c95deea8483a","2761","POINT (-122.396527 37.76258)","Potrero Hill","10","2026/01/28 12:00:00 AM","2026/02/14 09:35:07 AM"
"CAN-5893136","FELL ST / GOUGH ST | CCAN","10515893136","25916000","Fell St / Gough St","RENAISSANCE / METAL",,"NE","FELL ST","GOUGH ST","2016/08/08 12:00:00 AM",,"37.77595","-122.422788","3239ab43-5b0a-4787-9177-134731649f84","2393","POINT (-122.422788 37.77595)","Hayes Valley","5","2026/01/21 12:00:00 AM","2026/02/14 09:35:07 AM"
"CAN-5708417","850 VALENCIA ST","10515708417","13066000","VALENCIA ST: CUNNINGHAM PL - 20TH ST","RENAISSANCE / METAL",,,"VALENCIA ST","CUNNINGHAM PL","2014/12/01 12:00:00 AM",,"37.759234","-122.421503","58e04a91-069b-4457-8803-a6cfd438e06b","810","POINT (-122.421503 37.759234)","Mission","9","2025/08/08 12:00:00 AM","2026/02/14 09:35:07 AM"
"CAN-5692447","ROSELYN TER / TURK BLVD | CCAN","10515692447","26464000","Roselyn Ter / Turk Blvd","RENAISSANCE / METAL",,"N","ROSELYN TER","TURK BLVD","2014/10/20 12:00:00 AM",,"37.778277","-122.449767","a1e9e6fe-5db5-47fa-aca2-f515356af591","2243","POINT (-122.449767 37.778277)","Lone Mountain/USF","1","2026/01/12 12:00:00 AM","2026/02/14 09:35:07 AM"
"CAN-2377687","4603 MISSION ST","10512377687","9165000","MISSION ST: NORTON ST - SAN JUAN AVE","RENAISSANCE / METAL","Green","SW","MISSION ST","NORTON ST","1992/10/22 12:00:00 AM",,"37.724463","-122.434623","43f1e427-d61d-407d-94c8-6cb1b77eeb69","460","POINT (-122.434623 37.724463)","Excelsior","11","2025/12/19 12:00:00 AM","2026/02/14 09:35:07 AM"
"CAN-1226299","POLK ST / SUTTER ST | CCAN","10011226299","25208000","Polk St / Sutter St","RENAISSANCE / METAL",,"NW","POLK ST","SUTTER ST","2019/11/04 12:00:00 AM",,"37.787757","-122.420116","de0397e7-e52e-457b-9c29-f94ba2a43ee6","1566","POINT (-122.420116 37.787757)","Nob Hill","3","2026/01/24 12:00:00 AM","2026/02/14 09:35:07 AM"
"CAN-1089655","50 HOWARD ST","10011089655","7028000","HOWARD ST: STEUART LN \ STEUART ST - SPEAR ST","RENAISSANCE / METAL",,,"HOWARD ST","STEUART LN \ STEUART ST","2014/12/01 12:00:00 AM",,"37.792014","-122.391709","9673eba5-a9e0-41e9-bdc0-a5b7c97a98a2","103","POINT (-122.391709 37.792014)","Financial District/South Beach","6","2025/08/08 12:00:00 AM","2026/02/14 09:35:07 AM"
"CAN-4414785","5100 3RD ST  | CCAN","10514414785","20498000","03rd St / Bay View St \ Revere Ave","RENAISSANCE / METAL","Green","NW","03RD ST","BAY VIEW ST \ REVERE AVE","2005/07/25 12:00:00 AM",,"37.732432","-122.391521","adef55be-238c-4526-a20a-3cb0478099ef","2079","POINT (-122.391521 37.732432)","Bayview Hunters Point","10","2025/12/20 12:00:00 AM","2026/02/14 09:35:07 AM"
"CAN-6603047","BURROWS ST / PERU AVE | CCAN","10516603047","21610000","Burrows St / Peru Ave","RENAISSANCE / METAL",,,"BURROWS ST","PERU AVE","2022/05/01 12:00:00 AM","2026/02/05 12:00:00 AM","37.723944","-122.42283","a59e02f4-7612-4556-9a48-a5a322ba931f","2711","POINT (-122.42283 37.723944)","Excelsior","11","2026/02/06 12:00:00 AM","2026/02/14 09:35:07 AM"
"CAN-602748","BROADWAY / WEBSTER ST | CCAN","1001602748","26655000","Broadway / Webster St","RENAISSANCE / METAL",,"SW","BROADWAY","WEBSTER ST","2000/01/01 12:00:00 AM",,"37.794474","-122.433274","70f83083-195c-44d6-a68a-10aa76d21593","2411","POINT (-122.433274 37.794474)","Pacific Heights","2","2025/11/13 12:00:00 AM","2026/02/14 09:35:07 AM"
"CAN-5765904","OCEAN AVE / VICTORIA ST | CCAN","10515765904","22744000","Ocean Ave / Victoria St","RENAISSANCE / METAL",,"SW","OCEAN AVE","VICTORIA ST","2015/06/19 12:00:00 AM",,"37.726002","-122.46422","484e447e-b44b-4701-852e-e630ccd4fb0c","2342","POINT (-122.46422 37.726002)","West of Twin Peaks","7","2026/02/04 12:00:00 AM","2026/02/14 09:35:07 AM"
"CAN-1264407","FOLSOM ST: ESSEX ST - 02ND ST | CCAN","10011264407","05659000","FOLSOM ST: ESSEX ST - 02ND ST","RENAISSANCE / METAL",,,"FOLSOM ST","ESSEX ST","2020/10/08 12:00:00 AM",,"37.785961","-122.396175","f15aa141-0fc1-43ee-adfb-2f5ca6cfb09b","1621","POINT (-122.396175 37.785961)","Financial District/South Beach","6","2025/11/14 12:00:00 AM","2026/02/14 09:35:07 AM"
"CAN-1264423","FOLSOM ST: ESSEX ST - 02ND ST | CCAN","10011264423","05659000","FOLSOM ST: ESSEX ST - 02ND ST","RENAISSANCE / METAL",,,"FOLSOM ST","ESSEX ST","2020/10/08 12:00:00 AM",,"37.785961","-122.396175","e86e80d2-c929-4f14-9931-fbe4a8bdee56","1622","POINT (-122.396175 37.785961)","Financial District/South Beach","6","2025/11/14 12:00:00 AM","2026/02/14 09:35:07 AM"
"CAN-5708110","1598 FILLMORE ST","10515708110","5546000","FILLMORE ST: OFARRELL ST - GEARY BLVD","CEMENT / CONCRETE",,"NE","FILLMORE ST","OFARRELL ST","2014/12/01 12:00:00 AM",,"37.784332","-122.43284","faf07174-76a2-4b42-b4a5-cb215fe1bd36","805","POINT (-122.43284 37.784332)","Western Addition","5","2026/01/21 12:00:00 AM","2026/02/14 09:35:07 AM"
"CAN-874073","1598 FILLMORE ST","1001874073","5546000","FILLMORE ST: OFARRELL ST - GEARY BLVD","CEMENT / CONCRETE","green","NE","FILLMORE ST","OFARRELL ST","2007/05/01 12:00:00 AM",,"37.784332","-122.43284","3de0f4fd-ba5b-4a4b-b185-851e45fb20ad","1366","POINT (-122.43284 37.784332)","Western Addition","5","2026/01/21 12:00:00 AM","2026/02/14 09:35:07 AM"
"CAN-1110576","KEARNY ST / WASHINGTON ST | CCAN","10011110576","24774000","Kearny St / Washington St","RENAISSANCE / METAL",,,"KEARNY ST","WASHINGTON ST","2015/06/19 12:00:00 AM",,"37.795327","-122.404957","3da20c5b-cfb7-4b18-b37b-ce843a5a1de4","2920","POINT (-122.404957 37.795327)","Chinatown","3","2026/02/12 12:00:00 AM","2026/02/14 09:35:07 AM"
"CAN-4500674","1940 HARRISON ST","10514500674","6744000","HARRISON ST: 15TH ST - 16TH ST \ TREAT AVE","RENAISSANCE / METAL",,,"HARRISON ST","15TH ST","2006/02/27 12:00:00 AM",,"37.766389","-122.413379","d6203e5d-3136-43aa-820b-949e1d22efc3","617","POINT (-122.413379 37.766389)","Mission","9","2025/08/08 12:00:00 AM","2026/02/14 09:35:07 AM"
"CAN-6262208","15 WEST PORTAL AVE","10516262208","13577201","WEST PORTAL AVE: ULLOA ST - VICENTE ST","CEMENT / CONCRETE",,"E","WEST PORTAL AVE","ULLOA ST","2019/08/29 12:00:00 AM",,"37.740854","-122.466094","81446a74-88da-4434-9aa5-da2bd04633ab","1026","POINT (-122.466094 37.740854)","West of Twin Peaks","7","2026/01/22 12:00:00 AM","2026/02/14 09:35:07 AM"
"CAN-5709035","07TH AVE / LAWTON ST \ WARREN DR | CCAN","10515709035","27104000","07TH AVE / LAWTON ST \ WARREN DR","CEMENT / CONCRETE",,"N","07TH AVE","LAWTON ST \ WARREN DR","2014/12/01 12:00:00 AM",,"37.758538","-122.463782","55c7a8e9-f97d-455e-aef8-c326d03df85d","2291","POINT (-122.463782 37.758538)","Inner Sunset","7","2026/02/04 12:00:00 AM","2026/02/14 09:35:07 AM"
"CAN-1091644","2401 WEBSTER ST","10011091644","13549000","WEBSTER ST: JACKSON ST - BROMLEY PL","RENAISSANCE / METAL",,"E","WEBSTER ST","JACKSON ST","2014/12/01 12:00:00 AM",,"37.792685","-122.432989","cb398429-4f02-46f0-ab48-771f8a44701a","115","POINT (-122.432989 37.792685)","Pacific Heights","2","2026/01/23 12:00:00 AM","2026/02/14 09:35:07 AM"
"CAN-5210208","MARTIN LUTHER KING JR DR / NANCY PELOSI DR | CCAN","10515210208","27254000","MARTIN LUTHER KING JR DR / NANCY PELOSI DR","RENAISSANCE / METAL",,,"MARTIN LUTHER KING JR DR","NANCY PELOSI DR","2011/02/01 12:00:00 AM",,"37.768013","-122.467004","74ded223-ea95-4356-9fa8-6381b9740957","2131","POINT (-122.467004 37.768013)","Golden Gate Park","7","2025/12/06 12:00:00 AM","2026/02/14 09:35:07 AM"
"CAN-5281365","MARTIN LUTHER KING JR DR / NANCY PELOSI DR | CCAN","10515281365","27254000","MARTIN LUTHER KING JR DR / NANCY PELOSI DR","RENAISSANCE / METAL",,"W","MARTIN LUTHER KING JR DR","NANCY PELOSI DR","2011/08/08 12:00:00 AM",,"37.768013","-122.467004","02ae2d7d-ee57-471f-87da-495e3f3b93d4","2163","POINT (-122.467004 37.768013)","Golden Gate Park","7","2026/02/07 12:00:00 AM","2026/02/14 09:35:07 AM"
"CAN-884890","BUCHANAN ST / HAIGHT ST | CCAN","1051884890","25869000","Buchanan St / Haight St","RENAISSANCE / METAL",,"SW","BUCHANAN ST","HAIGHT ST","1988/01/01 12:00:00 AM",,"37.772525","-122.427158","a52083de-1d1b-4676-a5b1-36e934dc1fde","2813","POINT (-122.427158 37.772525)","Hayes Valley","8","2025/12/16 12:00:00 AM","2026/02/14 09:35:07 AM"
"CAN-581371","240 SUTTER ST","1001581371","12320000","SUTTER ST: CLAUDE LN - GRANT AVE","RENAISSANCE / METAL","green","NW","SUTTER ST","CLAUDE LN","1999/08/01 12:00:00 AM",,"37.789791","-122.404582","86c0f963-b121-45f9-b7a8-d8addddd4422","866","POINT (-122.404582 37.789791)","Financial District/South Beach","3","2025/12/13 12:00:00 AM","2026/02/14 09:35:07 AM"
"CAN-2471340","EDDY ST / SCOTT ST | CCAN","10512471340","26075000","Eddy St / Scott St","RENAISSANCE / METAL",,"SW","EDDY ST","SCOTT ST","1993/04/21 12:00:00 AM",,"37.780802","-122.43726","ec3c1f0e-af65-4e2a-b891-b50fbebfee3c","1806","POINT (-122.43726 37.780802)","Western Addition","5","2025/12/05 12:00:00 AM","2026/02/14 09:35:07 AM"
"CAN-6964512","1149 FOLSOM ST | CCAN",,"05676000","FOLSOM ST: RAUSCH ST - RODGERS ST","RENAISSANCE / METAL",,"SE","FOLSOM ST","RAUSCH ST",,,"37.775748","-122.408846","6fa923b8-2813-48a3-95e8-b459019f498f","2870","POINT (-122.408846 37.775748)","South of Market","6","2026/01/23 12:00:00 AM","2026/02/14 09:35:07 AM"
"CAN-1110154","999 NORTH POINT ST","10011110154","9696000","NORTH POINT ST: LARKIN ST - POLK ST","RENAISSANCE / METAL",,,"NORTH POINT ST","LARKIN ST","2015/06/01 12:00:00 AM",,"37.805239","-122.423595","c3ded0d3-4f92-46b7-a181-0c7194a0290a","130","POINT (-122.423595 37.805239)","Russian Hill","2","2025/08/08 12:00:00 AM","2026/02/14 09:35:07 AM"
"CAN-5720602","SLOAT BLVD / SUNSET BLVD OFF RAMP | CCAN","10515720602","32892000","Sloat Blvd / Sunset Blvd Off Ramp","CEMENT / CONCRETE",,"SW","SLOAT BLVD","SUNSET BLVD OFF RAMP","2014/12/01 12:00:00 AM",,"37.733879","-122.492418","2aa6f3fd-11a6-42e2-971e-c12b1ba66189","2308","POINT (-122.492418 37.733879)","Sunset/Parkside","4","2026/01/21 12:00:00 AM","2026/02/14 09:35:07 AM"
"CAN-1393610","101 06TH ST","10011393610","329000","06TH ST: MISSION ST - MINNA ST","RENAISSANCE / METAL",,,"06TH ST","MISSION ST","2025/06/13 12:00:00 AM",,"37.780905","-122.408342","b9375605-8834-4e43-bbbe-69dd38162ad6","414","POINT (-122.408342 37.780905)","South of Market","6","2025/08/08 12:00:00 AM","2026/02/14 09:35:07 AM"
"CAN-3026002","SAN JOSE AVE / SENECA AVE | CCAN","10513026002","22104000","San Jose Ave / Seneca Ave","CEMENT / CONCRETE",,"NE","SAN JOSE AVE","SENECA AVE","1996/11/19 12:00:00 AM",,"37.721629","-122.445855","c30300cc-f5a9-4654-809d-4b18988fac79","1855","POINT (-122.445855 37.721629)","Outer Mission","11","2026/01/23 12:00:00 AM","2026/02/14 09:35:07 AM"
"CAN-1166511","FAXON AVE / OCEAN AVE | CCAN","10511166511","22654000","Faxon Ave / Ocean Ave","RENAISSANCE / METAL",,"SE","FAXON AVE","OCEAN AVE","1988/01/01 12:00:00 AM",,"37.724749","-122.460234","26b60e4b-a3aa-459e-96bd-409f2763fc7a","1530","POINT (-122.460234 37.724749)","Oceanview/Merced/Ingleside","11","2025/12/03 12:00:00 AM","2026/02/14 09:35:07 AM"
"CAN-613737","299 CASTRO ST","1051613737","3787000","CASTRO ST: BEAVER ST - 16TH ST","RENAISSANCE / METAL",,,"CASTRO ST","BEAVER ST","1988/01/01 12:00:00 AM",,"37.764305","-122.435117","687d8272-08c5-444c-8189-8361b8f76377","983","POINT (-122.435117 37.764305)","Castro/Upper Market","8","2025/12/31 12:00:00 AM","2026/02/14 09:35:07 AM"
"CAN-2683167","BALBOA ST / PARK PRESIDIO BLVD | CCAN","10512683167","27472000","Balboa St / Park Presidio Blvd","RENAISSANCE / METAL",,"SW","BALBOA ST","PARK PRESIDIO BLVD","1994/08/24 12:00:00 AM",,"37.776868","-122.47204","a9757fcf-4a84-4c4a-9489-da6b4e2ba2d2","1824","POINT (-122.47204 37.776868)","Outer Richmond","1","2025/11/27 12:00:00 AM","2026/02/14 09:35:07 AM"
"CAN-6932651","JUDAH ST / SUNSET BLVD | CCAN","10516932651","27735000","Judah St / Sunset Blvd","CEMENT / CONCRETE",,"SW","JUDAH ST","SUNSET BLVD","2025/02/20 12:00:00 AM",,"37.760874","-122.495749","17e1d8e1-62b5-4715-b99c-ea7feaee7b86","2778","POINT (-122.495749 37.760874)","Sunset/Parkside","4","2025/12/02 12:00:00 AM","2026/02/14 09:35:07 AM"
"CAN-6932834","JUDAH ST / SUNSET BLVD | CCAN","10516932834","27735000","Judah St / Sunset Blvd","CEMENT / CONCRETE",,"NE","JUDAH ST","SUNSET BLVD","2025/03/04 12:00:00 AM",,"37.760874","-122.495749","4cfd3d72-d28c-40c3-bd0a-dea7f79cf6b3","2782","POINT (-122.495749 37.760874)","Sunset/Parkside","4","2025/12/02 12:00:00 AM","2026/02/14 09:35:07 AM"
"CAN-2956407","16TH AVE / CALIFORNIA ST | CCAN","10512956407","27624000","16th Ave / California St","RENAISSANCE / METAL","green","SW","16TH AVE","CALIFORNIA ST","1996/04/24 12:00:00 AM",,"37.784319","-122.475371","4b8c0d93-c950-4a1c-8ec7-2bacb60bd0bc","1842","POINT (-122.475371 37.784319)","Outer Richmond","1","2026/02/09 12:00:00 AM","2026/02/14 09:35:07 AM"
"CAN-5707401","16TH AVE / CALIFORNIA ST | CCAN","10515707401","27624000","16th Ave / California St","RENAISSANCE / METAL","green","NE","16TH AVE","CALIFORNIA ST","2014/12/01 12:00:00 AM",,"37.784319","-122.475371","3a8321fd-3d77-41ce-8300-b4256a2d3e2d","2258","POINT (-122.475371 37.784319)","Outer Richmond","1","2026/02/09 12:00:00 AM","2026/02/14 09:35:07 AM"
"CAN-4667531","IRVING ST / SUNSET BLVD | CCAN","10514667531","27737000","Irving St / Sunset Blvd","RENAISSANCE / METAL",,"SE","IRVING ST","SUNSET BLVD","2007/05/03 12:00:00 AM",,"37.762735","-122.495877","f8abc0a7-9d69-4f7c-b614-20cc804119b0","2098","POINT (-122.495877 37.762735)","Sunset/Parkside","4","2025/12/02 12:00:00 AM","2026/02/14 09:35:07 AM"
"CAN-5764600","IRVING ST / SUNSET BLVD | CCAN","10515764600","27737000","Irving St / Sunset Blvd","CEMENT / CONCRETE",,"SW","IRVING ST","SUNSET BLVD","2015/06/19 12:00:00 AM",,"37.762735","-122.495877","d974637e-1c29-46cb-936b-00e937b97425","2318","POINT (-122.495877 37.762735)","Sunset/Parkside","4","2025/12/02 12:00:00 AM","2026/02/14 09:35:07 AM"
"CAN-5764980","DIVISADERO ST / MCALLISTER ST | CCAN","10515764980","26067000","Divisadero St / McAllister St","RENAISSANCE / METAL",,"NE","DIVISADERO ST","MCALLISTER ST","2015/06/19 12:00:00 AM",,"37.777794","-122.438366","a5dbdbc6-cb75-4c53-94e0-dbdb4e695daa","2328","POINT (-122.438366 37.777794)","Western Addition","5","2025/12/05 12:00:00 AM","2026/02/14 09:35:07 AM"
"CAN-6107536","DIVISADERO ST / MCALLISTER ST | CCAN","10516107536","26067000","Divisadero St / McAllister St","RENAISSANCE / METAL",,"SW","DIVISADERO ST","MCALLISTER ST","2018/03/30 12:00:00 AM",,"37.777794","-122.438366","040e9615-9a10-461c-99b2-9c4c239a48b4","2470","POINT (-122.438366 37.777794)","Western Addition","5","2025/12/05 12:00:00 AM","2026/02/14 09:35:07 AM"
"CAN-5708755","HAYES ST / OCTAVIA ST | CCAN","10515708755","25925000","Hayes St / Octavia St","SLIM SILHOUETTE","green","NW","HAYES ST","OCTAVIA ST","2014/12/01 12:00:00 AM",,"37.776688","-122.424514","4f5a9e04-b486-4952-91bd-4783bfeef893","2282","POINT (-122.424514 37.776688)","Hayes Valley","5","2026/01/15 12:00:00 AM","2026/02/14 09:35:07 AM"
"CAN-602771","695 BRYANT ST","1001602771","3285000","BRYANT ST: 04TH ST \ I-80 E OFF RAMP - 05TH ST \ I-80 E ON RAMP","CEMENT / CONCRETE",,,"BRYANT ST","04TH ST \ I-80 E OFF RAMP","2000/01/01 12:00:00 AM",,"37.777867","-122.399962","ae571c6a-75c8-4027-b59d-9eec626cb530","923","POINT (-122.399962 37.777867)","South of Market","6","2025/08/08 12:00:00 AM","2026/02/14 09:35:07 AM"
"CAN-5707799","299 DAY ST","10515707799","4620000","DAY ST: CHURCH ST - SANCHEZ ST","RENAISSANCE / METAL",,,"DAY ST","CHURCH ST","2014/12/01 12:00:00 AM",,"37.742713","-122.428734","92a4e952-a17c-4855-8663-ce0e2934f469","799","POINT (-122.428734 37.742713)","Noe Valley","8","2025/08/08 12:00:00 AM","2026/02/14 09:35:07 AM"
"CAN-5281704","08TH AVE / JOHN F KENNEDY DR | CCAN","10515281704","27257000","08th Ave / John F Kennedy Dr","RENAISSANCE / METAL",,"E","08TH AVE","JOHN F KENNEDY DR","2011/08/08 12:00:00 AM",,"37.772609","-122.465825","0b5de7b8-1742-45b2-be77-8e5f5150ab82","2166","POINT (-122.465825 37.772609)","Golden Gate Park","7","2026/02/07 12:00:00 AM","2026/02/14 09:35:07 AM"
"CAN-906479","BUCHANAN ST / HAYES ST | CCAN","1051906479","25933000","Buchanan St / Hayes St","RENAISSANCE / METAL",,"SE","BUCHANAN ST","HAYES ST","1988/01/01 12:00:00 AM",,"37.776254","-122.427914","98e2507d-c8b2-423f-ba45-80228f7b42a4","2816","POINT (-122.427914 37.776254)","Hayes Valley","5","2026/01/19 12:00:00 AM","2026/02/14 09:35:07 AM"
"CAN-6964475","17TH ST / POTRERO AVE | CCAN",,"24020000","17th St / Potrero Ave","RENAISSANCE / METAL",,"NE","17TH ST","POTRERO AVE",,,"37.764488","-122.40742","5fe29acc-2ace-4756-a8ea-f9287d93469d","2836","POINT (-122.40742 37.764488)","Mission","9","2025/12/17 12:00:00 AM","2026/02/14 09:35:07 AM"
"CAN-5949540","22ND ST / FOLSOM ST | CCAN","10515949540","24077000","22nd St / Folsom St","RENAISSANCE / METAL","green","NE","22ND ST","FOLSOM ST","2017/01/02 12:00:00 AM",,"37.755699","-122.414388","4efb17ac-3f7d-4970-86a0-495433c4c909","2402","POINT (-122.414388 37.755699)","Mission","9","2025/11/11 12:00:00 AM","2026/02/14 09:35:07 AM"
"CAN-5742754","1847 LINCOLN WAY","10515742754","8357101","LINCOLN WAY: 19TH AVE \ CROSSOVER DR - 20TH AVE","RENAISSANCE / METAL",,"SE","LINCOLN WAY","19TH AVE \ CROSSOVER DR","2015/04/09 12:00:00 AM",,"37.765144","-122.47813","bc88974b-a039-4aad-9b51-cac12e7c1602","845","POINT (-122.47813 37.765144)","Sunset/Parkside","4","2026/01/21 12:00:00 AM","2026/02/14 09:35:07 AM"
"CAN-2357168","22ND ST / FOLSOM ST | CCAN","10512357168","24077000","22nd St / Folsom St","RENAISSANCE / METAL",,"SW","22ND ST","FOLSOM ST","1992/08/26 12:00:00 AM",,"37.755699","-122.414388","fbd30cae-47c5-4b94-a42f-474a6ab31be8","1784","POINT (-122.414388 37.755699)","Mission","9","2025/11/11 12:00:00 AM","2026/02/14 09:35:07 AM"
"CAN-6964494","7501 GEARY BLVD | CCAN",,"06096101","GEARY BLVD: 39TH AVE - 40TH AVE","RENAISSANCE / METAL",,"SW","GEARY BLVD","39TH AVE","2025/12/21 12:00:00 AM",,"37.779193","-122.499904","5f30ccb6-3095-4581-93ef-967bfd82d0b9","2857","POINT (-122.499904 37.779193)","Outer Richmond","1","2025/12/31 12:00:00 AM","2026/02/14 09:35:07 AM"
"CAN-5500566","2208 MISSION ST","10515500566","9120000","MISSION ST: 18TH ST - 19TH ST","CEMENT / CONCRETE",,,"MISSION ST","18TH ST","2013/05/15 12:00:00 AM",,"37.76162","-122.419537","d8c5c2b0-3a75-4d3d-8d5f-502619290fa4","720","POINT (-122.419537 37.76162)","Mission","9","2025/12/22 12:00:00 AM","2026/02/14 09:35:07 AM"
"CAN-5709241","2661 OCEAN AVE","10515709241","9849000","OCEAN AVE: LAGUNITAS DR - 19TH AVE","RENAISSANCE / METAL",,"SW","OCEAN AVE","LAGUNITAS DR","2014/12/01 12:00:00 AM",,"37.732012","-122.474325","0977019d-d610-47e3-833f-59367aec3ff1","817","POINT (-122.474325 37.732012)","West of Twin Peaks","7","2026/01/14 12:00:00 AM","2026/02/14 09:35:07 AM"
"CAN-2325710","24TH ST / VICKSBURG ST | CCAN","10512325710","25647000","24th St / Vicksburg St","RENAISSANCE / METAL",,"SE","24TH ST","VICKSBURG ST","1992/07/08 12:00:00 AM",,"37.751638","-122.428548","e0e3170d-d8a7-4b24-86cb-e6052d2ea9c6","1770","POINT (-122.428548 37.751638)","Noe Valley","8","2025/12/23 12:00:00 AM","2026/02/14 09:35:07 AM"
"CAN-429894","24TH ST / VICKSBURG ST | CCAN","1051429894","25647000","24th St / Vicksburg St","RENAISSANCE / METAL",,"NE","24TH ST","VICKSBURG ST","1988/01/01 12:00:00 AM",,"37.751638","-122.428548","3e3b9d8c-3522-4887-9744-894cb5cd6758","2062","POINT (-122.428548 37.751638)","Noe Valley","8","2025/12/23 12:00:00 AM","2026/02/14 09:35:07 AM"
"CAN-4331476","1000 DIVISADERO ST","10514331476","4807201","DIVISADERO ST: GOLDEN GATE AVE - TURK ST","CEMENT / CONCRETE",,,"DIVISADERO ST","GOLDEN GATE AVE","2005/01/01 12:00:00 AM",,"37.778922","-122.43841","2b3a76ce-159c-4188-8e51-8ffb3deab204","605","POINT (-122.43841 37.778922)","Western Addition","5","2025/08/08 12:00:00 AM","2026/02/14 09:35:07 AM"
"CAN-1283738","832 STOCKTON ST","10011283738","12204000","STOCKTON ST: SACRAMENTO ST \ STOCKTON TUN - CLAY ST","CEMENT / CONCRETE","green","NE","STOCKTON ST","SACRAMENTO ST \ STOCKTON TUNL","2021/06/08 12:00:00 AM",,"37.793704","-122.407643","12f6e126-16c8-40f0-94a6-753b7550db9e","268","POINT (-122.407643 37.793704)","Chinatown","3","2026/01/03 12:00:00 AM","2026/02/14 09:35:07 AM"
"CAN-5765482","701 TARAVAL ST","10515765482","12393000","TARAVAL ST: 17TH AVE - 18TH AVE","RENAISSANCE / METAL",,"SW","TARAVAL ST","17TH AVE","2015/06/24 12:00:00 AM",,"37.742997","-122.473705","b8b1b121-30fc-4e16-a6c6-8eb083b0b8f7","859","POINT (-122.473705 37.742997)","West of Twin Peaks","7","2026/01/19 12:00:00 AM","2026/02/14 09:35:07 AM"
"CAN-5116926","TURK BLVD/ BAKER ST | CCAN","10515116926","26390000","Central Ave / Turk Blvd","RENAISSANCE / METAL",,"NW","CENTRAL AVE","TURK BLVD","2010/06/24 12:00:00 AM",,"37.778837","-122.445347","6f9e6686-bb45-491e-93d6-099680d5f72e","2109","POINT (-122.445347 37.778837)","Lone Mountain/USF","2","2026/01/12 12:00:00 AM","2026/02/14 09:35:07 AM"
"CAN-3272887","2057 DIVISADERO ST","10513272887","4817101","DIVISADERO ST: CALIFORNIA ST - SACRAMENTO ST","RENAISSANCE / METAL","green","W","DIVISADERO ST","CALIFORNIA ST","1998/07/01 12:00:00 AM",,"37.788842","-122.440759","820efe54-d345-45a0-8152-41220681d1fd","522","POINT (-122.440759 37.788842)","Pacific Heights","2","2025/12/27 12:00:00 AM","2026/02/14 09:35:07 AM"
"CAN-1975267","46TH AVE / TARAVAL ST | CCAN","10511975267","23502000","46th Ave / Taraval St","RENAISSANCE / METAL",,"NW","46TH AVE","TARAVAL ST","1990/09/01 12:00:00 AM",,"37.741765","-122.50462","9bde2438-3c33-489b-b69c-f43ca965c770","1751","POINT (-122.50462 37.741765)","Sunset/Parkside","4","2026/01/30 12:00:00 AM","2026/02/14 09:35:07 AM"
"CAN-2764702","46TH AVE / TARAVAL ST | CCAN","10512764702","23502000","46th Ave / Taraval St","CEMENT / CONCRETE",,"SE","46TH AVE","TARAVAL ST","1994/11/29 12:00:00 AM",,"37.741765","-122.50462","a4e020d1-686f-4deb-b1c1-9ad507840bca","1829","POINT (-122.50462 37.741765)","Sunset/Parkside","4","2026/01/30 12:00:00 AM","2026/02/14 09:35:07 AM"
"CAN-5765730","46TH AVE / TARAVAL ST | CCAN","10515765730","23502000","46th Ave / Taraval St","RENAISSANCE / METAL",,"NE","46TH AVE","TARAVAL ST","2015/06/24 12:00:00 AM",,"37.741765","-122.50462","774b5fe6-968d-4966-b3ba-493af75738cc","2338","POINT (-122.50462 37.741765)","Sunset/Parkside","4","2025/12/03 12:00:00 AM","2026/02/14 09:35:07 AM"
"CAN-565820","199 MAIN ST","1001565820","8628000","MAIN ST: MISSION ST - HOWARD ST","RENAISSANCE / METAL",,"NE","MAIN ST","MISSION ST","1999/08/01 12:00:00 AM",,"37.790688","-122.393405","167db944-ba08-49a0-bbc2-bbf7e7b6ffc3","758","POINT (-122.393405 37.790688)","Financial District/South Beach","6","2026/01/15 12:00:00 AM","2026/02/14 09:35:07 AM"
"CAN-746602","455 MCALLISTER ST","1001746602","8894000","MCALLISTER ST: DR CARLTON B GOODLETT PL \ P - VAN NESS AVE","RENAISSANCE / METAL",,,"MCALLISTER ST","DR CARLTON B GOODLETT PL \ POLK ST","2003/08/01 12:00:00 AM",,"37.780093","-122.41949","1c845244-f8ab-4fd5-855a-386774bb0483","1317","POINT (-122.41949 37.780093)","Tenderloin","5","2025/08/08 12:00:00 AM","2026/02/14 09:35:07 AM"
"CAN-2957231","18TH ST / EUREKA ST | CCAN","10512957231","25819000","18th St / Eureka St","CEMENT / CONCRETE",,,"18TH ST","EUREKA ST","1996/02/08 12:00:00 AM",,"37.760692","-122.438265","b5e3f062-0647-435a-b3f8-f447bdf05bda","1845","POINT (-122.438265 37.760692)","Castro/Upper Market","8","2025/11/15 12:00:00 AM","2026/02/14 09:35:07 AM"
"CAN-5708292","DE HARO ST / SOUTHERN HEIGHTS AVE | CCAN","10515708292","23739000","De Haro St / Southern Heights Ave","CEMENT / CONCRETE","Green","NE","DE HARO ST","SOUTHERN HEIGHTS AVE","2014/12/01 12:00:00 AM",,"37.758132","-122.40096","71581c54-a5d0-4d06-84df-5d3ef247c70c","2270","POINT (-122.40096 37.758132)","Potrero Hill","10","2026/01/28 12:00:00 AM","2026/02/14 09:35:07 AM"
"CAN-1042696","310 KING ST","10011042696","7834201","KING ST: 04TH ST - 05TH ST \ I-280 N OFF RAMP \","RENAISSANCE / METAL",,"NE","KING ST","04TH ST","2013/05/01 12:00:00 AM",,"37.776255","-122.394435","04947422-4b41-449a-b3cc-5acf087b6d3d","66","POINT (-122.394435 37.776255)","Mission Bay","6","2026/01/10 12:00:00 AM","2026/02/14 09:35:07 AM"
"CAN-3515020","3472 MISSION ST","10513515020","9139000","MISSION ST: KINGSTON ST - CORTLAND AVE","RENAISSANCE / METAL",,,"MISSION ST","KINGSTON ST","1999/11/19 12:00:00 AM",,"37.741196","-122.422899","3903a445-ed85-4c1c-a06a-045819fd437c","562","POINT (-122.422899 37.741196)","Bernal Heights","9","2025/08/08 12:00:00 AM","2026/02/14 09:35:07 AM"
"CAN-604983","399 FRONT ST","1001604983","5871000","FRONT ST: SACRAMENTO ST - CLAY ST","CEMENT / CONCRETE",,,"FRONT ST","SACRAMENTO ST","2000/01/01 12:00:00 AM",,"37.795128","-122.399212","2a40e91f-ed2b-46d6-9076-dd492505fbb6","948","POINT (-122.399212 37.795128)","Financial District/South Beach","3","2025/08/08 12:00:00 AM","2026/02/14 09:35:07 AM"
"CAN-3720992","22ND ST / IOWA ST | CCAN","10513720992","23624000","22nd St / Iowa St","RENAISSANCE / METAL","Black","S","22ND ST","IOWA ST","2001/06/01 12:00:00 AM",,"37.75771","-122.392134","ec7837aa-fc7c-485a-ba8b-61e8b6e68656","1993","POINT (-122.392134 37.75771)","Potrero Hill","10","2025/12/27 12:00:00 AM","2026/02/14 09:35:07 AM"
"CAN-3721008","22ND ST / IOWA ST | CCAN","10513721008","23624000","22nd St / Iowa St","RENAISSANCE / METAL","Black","S","22ND ST","IOWA ST","2001/06/01 12:00:00 AM",,"37.75771","-122.392134","358fe405-485f-4704-ada7-e57ffbd50b99","1994","POINT (-122.392134 37.75771)","Potrero Hill","10","2025/12/27 12:00:00 AM","2026/02/14 09:35:07 AM"
"CAN-6507057","22ND ST / IOWA ST | CCAN","10516507057","23624000","22nd St / Iowa St","RENAISSANCE / METAL","Black","NE","22ND ST","IOWA ST","2021/08/30 12:00:00 AM",,"37.75771","-122.392134","5be2aa20-5f86-4eaa-acd9-cb36f3de1424","2663","POINT (-122.392134 37.75771)","Potrero Hill","10","2025/12/27 12:00:00 AM","2026/02/14 09:35:07 AM"
"CAN-1194042","801 JONES ST","10011194042","7575000","JONES ST: SUTTER ST - BUSH ST","RENAISSANCE / METAL","green","NW","JONES ST","SUTTER ST","2018/07/16 12:00:00 AM",,"37.788798","-122.413841","700cdb34-8b1e-490a-b7d8-ce70e85a1337","173","POINT (-122.413841 37.788798)","Nob Hill","3","2026/01/09 12:00:00 AM","2026/02/14 09:35:07 AM"
"CAN-3428729","19TH AVE / LAWTON ST | CCAN","10513428729","27343000","19th Ave / Lawton St","RENAISSANCE / METAL",,"SE","19TH AVE","LAWTON ST","1999/06/01 12:00:00 AM",,"37.757969","-122.476684","7dd15e35-cc80-4ae6-ae46-fca20c1db454","1947","POINT (-122.476684 37.757969)","Inner Sunset","7","2025/12/03 12:00:00 AM","2026/02/14 09:35:07 AM"
"CAN-4748190","SUNSET BLVD / VICENTE ST | CCAN","10514748190","23378000","Sunset Blvd / Vicente St","CEMENT / CONCRETE",,"NE","SUNSET BLVD","VICENTE ST","2007/11/09 12:00:00 AM",,"37.738496","-122.494181","10cb7c24-49f3-4920-9250-d8a67ae5cecd","2100","POINT (-122.494181 37.738496)","Sunset/Parkside","4","2025/12/02 12:00:00 AM","2026/02/14 09:35:07 AM"
"CAN-1380849","701 BATTERY ST","10011380849","2762000","BATTERY ST: PACIFIC AVE - BROADWAY","RENAISSANCE / METAL","green","W","BATTERY ST","PACIFIC AVE","2024/12/13 12:00:00 AM",,"37.797721","-122.401153","7069af06-1b1e-4ea0-922a-d0afd4cfc99b","387","POINT (-122.401153 37.797721)","Financial District/South Beach","3","2026/01/16 12:00:00 AM","2026/02/14 09:35:07 AM"
"CAN-4358941","1501 20TH ST","10514358941","1034000","20TH ST: MISSOURI ST - CONNECTICUT ST","RENAISSANCE / METAL","Green","SE","20TH ST","MISSOURI ST","2005/03/17 12:00:00 AM",,"37.759895","-122.39645","51fcc08d-48fc-4af3-bc3b-7db3a606c964","609","POINT (-122.39645 37.759895)","Potrero Hill","10","2025/12/19 12:00:00 AM","2026/02/14 09:35:07 AM"
"CAN-6163018","1500 HAIGHT ST","10516163018","6619000","HAIGHT ST: ASHBURY ST - CLAYTON ST","RENAISSANCE / METAL",,"NW","HAIGHT ST","ASHBURY ST","2018/09/18 12:00:00 AM",,"37.770042","-122.446991","9d43e2cd-f3e9-4874-988f-7dcb71aa4508","999","POINT (-122.446991 37.770042)","Haight Ashbury","5","2026/01/01 12:00:00 AM","2026/02/14 09:35:07 AM"
"CAN-4008447","25TH AVE / LINCOLN WAY | CCAN","10514008447","27423000","24th Ave / Lincoln Way","RENAISSANCE / METAL",,"NW","24TH AVE","LINCOLN WAY","2002/12/01 12:00:00 AM",,"37.76521","-122.482615","3b70536e-88ef-41d2-9790-bbfa6b80222a","2034","POINT (-122.482615 37.76521)","Sunset/Parkside","4","2026/02/07 12:00:00 AM","2026/02/14 09:35:07 AM"
"CAN-5708201","498 SANCHEZ ST","10515708201","11515000","SANCHEZ ST: FORD ST - 18TH ST","RENAISSANCE / METAL",,"NW","SANCHEZ ST","FORD ST","2014/12/01 12:00:00 AM",,"37.761261","-122.430847","c04819dd-ec3f-44bc-856d-9ced14c8d865","808","POINT (-122.430847 37.761261)","Castro/Upper Market","8","2025/12/31 12:00:00 AM","2026/02/14 09:35:07 AM"
"CAN-1210442","2525 LYON ST","10011210442","8576000","LYON ST: VALLEJO ST - GREEN ST","RENAISSANCE / METAL",,"S","LYON ST","VALLEJO ST","2019/04/03 12:00:00 AM",,"37.794305","-122.446862","5a8b5c93-423a-4634-a359-f560a7652974","189","POINT (-122.446862 37.794305)","Presidio","2","2026/01/24 12:00:00 AM","2026/02/14 09:35:07 AM"
"CAN-3722931","23RD ST / KANSAS ST | CCAN","10513722931","23725000","23rd St / Kansas St","CEMENT / CONCRETE","Green","SE","23RD ST","KANSAS ST","2001/06/01 12:00:00 AM",,"37.754512","-122.402558","f29642a1-dc52-4389-9c83-c6436ace0d39","1996","POINT (-122.402558 37.754512)","Potrero Hill","10","2026/01/30 12:00:00 AM","2026/02/14 09:35:07 AM"
"CAN-3359205","21ST ST / FOLSOM ST | CCAN","10513359205","24079000","21st St / Folsom St","RENAISSANCE / METAL",,"NW","21ST ST","FOLSOM ST","1998/12/17 12:00:00 AM",,"37.757298","-122.414541","da157028-a645-40bb-a1ab-ab0c5bfba1d2","1903","POINT (-122.414541 37.757298)","Mission","9","2025/11/11 12:00:00 AM","2026/02/14 09:35:07 AM"
"CAN-2911691","22ND AVE / NORIEGA ST | CCAN","10512911691","27340000","22nd Ave / Noriega St","RENAISSANCE / METAL",,"NW","22ND AVE","NORIEGA ST","1995/10/01 12:00:00 AM",,"37.754099","-122.479687","23856527-551a-490a-a955-89a1b0770e78","1839","POINT (-122.479687 37.754099)","Sunset/Parkside","4","2025/12/03 12:00:00 AM","2026/02/14 09:35:07 AM"
"CAN-4130662","22ND AVE / NORIEGA ST | CCAN","10514130662","27340000","22nd Ave / Noriega St","RENAISSANCE / METAL",,"NE","22ND AVE","NORIEGA ST","2003/09/01 12:00:00 AM",,"37.754099","-122.479687","0a7f702c-495d-409f-8b45-a6c900835402","2045","POINT (-122.479687 37.754099)","Sunset/Parkside","4","2025/12/05 12:00:00 AM","2026/02/14 09:35:07 AM"
"CAN-3392453","3801 24TH ST","10513392453","1359000","24TH ST: CHURCH ST - VICKSBURG ST","RENAISSANCE / METAL",,"SW","24TH ST","CHURCH ST","1999/03/01 12:00:00 AM",,"37.751559","-122.42772","41164430-89f2-4f17-b58e-538d836fcbe0","548","POINT (-122.42772 37.751559)","Noe Valley","8","2025/12/23 12:00:00 AM","2026/02/14 09:35:07 AM"
"CAN-1203728","POWELL ST / UNION ST | CCAN","10011203728","25423000","Powell St / Union St","RENAISSANCE / METAL",,,"POWELL ST","UNION ST","2018/12/24 12:00:00 AM",,"37.800239","-122.410834","fa1faa52-957d-4790-a5af-747b65032a63","1554","POINT (-122.410834 37.800239)","Chinatown","3","2025/12/08 12:00:00 AM","2026/02/14 09:35:07 AM"
"CAN-4878591","501 IRVING ST","10514878591","7283000","IRVING ST: 06TH AVE - 07TH AVE","RENAISSANCE / METAL",,"SW","IRVING ST","06TH AVE","2008/10/28 12:00:00 AM",,"37.764122","-122.46313","84efa972-1cb8-4454-a6e0-267df0c701fc","640","POINT (-122.46313 37.764122)","Inner Sunset","7","2026/01/10 12:00:00 AM","2026/02/14 09:35:07 AM"
"CAN-5503743","22ND ST / VALENCIA ST | CCAN","10515503743","24115000","22nd St / Valencia St","RENAISSANCE / METAL",,"NW","22ND ST","VALENCIA ST","2013/05/23 12:00:00 AM",,"37.755295","-122.420964","68a67803-9b5d-4b99-8dd3-6c15b4f607fe","2223","POINT (-122.420964 37.755295)","Mission","9","2025/12/10 12:00:00 AM","2026/02/14 09:35:07 AM"
"CAN-882159","3762 FILLMORE ST","1001882159","5572201","FILLMORE ST: JEFFERSON ST - RETIRO WAY","CEMENT / CONCRETE",,,"FILLMORE ST","JEFFERSON ST","2007/08/07 12:00:00 AM",,"37.805765","-122.437086","87d8f2fe-1d87-4060-a035-cf643d4707e6","1367","POINT (-122.437086 37.805765)","Marina","2","2025/08/08 12:00:00 AM","2026/02/14 09:35:07 AM"
"CAN-5381900","14TH ST / NOE ST | CCAN","10515381900","25982000","14th St / Noe St","RENAISSANCE / METAL",,"NW","14TH ST","NOE ST","2012/05/24 12:00:00 AM",,"37.767462","-122.433408","e6915e1f-b22f-4d1a-83b9-05bd7ef373a8","2189","POINT (-122.433408 37.767462)","Castro/Upper Market","8","2025/11/15 12:00:00 AM","2026/02/14 09:35:07 AM"
"CAN-1346410","LEAVENWORTH ST / SUTTER ST | CCAN","10011346410","25164000","Leavenworth St / Sutter St","CEMENT / CONCRETE","green","SE","LEAVENWORTH ST","SUTTER ST","2023/09/21 12:00:00 AM",,"37.788388","-122.415185","8a473359-14cd-477c-bc88-7451382126d8","1671","POINT (-122.415185 37.788388)","Nob Hill","3","2026/01/09 12:00:00 AM","2026/02/14 09:35:07 AM"
"CAN-1257765","2299 POWELL ST","10011257765","10703000","POWELL ST: VANDEWATER ST - BAY ST","RENAISSANCE / METAL",,,"POWELL ST","VANDEWATER ST","2020/07/30 12:00:00 AM",,"37.805619","-122.412087","adfc4186-dc2d-4ad4-9a49-809718f41bc5","234","POINT (-122.412087 37.805619)","North Beach","3","2025/08/08 12:00:00 AM","2026/02/14 09:35:07 AM"
"CAN-6091599","14TH AVE / LAKE ST | CCAN","10516091599","27622000","14th Ave / Lake St","CEMENT / CONCRETE",,"SE","14TH AVE","LAKE ST","2018/02/24 12:00:00 AM",,"37.786288","-122.473255","72e20dbf-a9a0-48fd-9702-af94836a3dff","2425","POINT (-122.473255 37.786288)","Seacliff","1","2025/11/27 12:00:00 AM","2026/02/14 09:35:07 AM"
"CAN-5807656","GEARY BLVD / PARK PRESIDIO BLVD | CCAN","10515807656","27483000","Geary Blvd / Park Presidio Blvd","RENAISSANCE / METAL",,"SE","GEARY BLVD","PARK PRESIDIO BLVD","2015/10/21 12:00:00 AM",,"37.780656","-122.472312","2bee1b2d-a047-4974-a4e2-0fa1971ce056","2351","POINT (-122.472312 37.780656)","Outer Richmond","1","2026/02/09 12:00:00 AM","2026/02/14 09:35:07 AM"
"CAN-6107502","GEARY BLVD / PARK PRESIDIO BLVD | CCAN","10516107502","27483000","Geary Blvd / Park Presidio Blvd","RENAISSANCE / METAL",,"NW","GEARY BLVD","PARK PRESIDIO BLVD","2018/03/30 12:00:00 AM",,"37.780656","-122.472312","6c725a88-f692-44b3-9178-dc08f11225e6","2469","POINT (-122.472312 37.780656)","Outer Richmond","1","2025/11/13 12:00:00 AM","2026/02/14 09:35:07 AM"
"CAN-6922256","GEARY BLVD / PARK PRESIDIO BLVD | CCAN","10516922256","27483000","Geary Blvd / Park Presidio Blvd","RENAISSANCE / METAL",,"NE","GEARY BLVD","PARK PRESIDIO BLVD","2025/02/03 12:00:00 AM",,"37.780656","-122.472312","c856c29e-cf40-429f-9e83-3b17a616e4e4","2776","POINT (-122.472312 37.780656)","Outer Richmond","1","2025/12/03 12:00:00 AM","2026/02/14 09:35:07 AM"
"CAN-3250883","TURK BLVD / PARKER AVE | CCAN","10513250883","26481000","Parker Ave / Turk Blvd","RENAISSANCE / METAL",,"NE","PARKER AVE","TURK BLVD","1998/05/20 12:00:00 AM",,"37.777827","-122.453385","1a165972-ee59-414f-9231-6ca216017812","1882","POINT (-122.453385 37.777827)","Lone Mountain/USF","1","2026/01/12 12:00:00 AM","2026/02/14 09:35:07 AM"
"CAN-6948640","2390 MARKET ST","10516948640","8767201","MARKET ST: 16TH ST \ NOE ST - 17TH ST \ CASTRO ST","RENAISSANCE / METAL",,,"MARKET ST","16TH ST \ NOE ST","2025/04/21 12:00:00 AM",,"37.763035","-122.434909","582784d7-691b-4ad0-a9d0-4c690d2c8e72","1300","POINT (-122.434909 37.763035)","Castro/Upper Market","8","2025/08/08 12:00:00 AM","2026/02/14 09:35:07 AM"
"CAN-5711734","560 IRVING ST","10515711734","7283000","IRVING ST: 06TH AVE - 07TH AVE","RENAISSANCE / METAL",,"NE","IRVING ST","06TH AVE","2014/12/01 12:00:00 AM",,"37.764266","-122.463971","a4c69a5c-1f48-4896-ad65-6ecb86172705","827","POINT (-122.463971 37.764266)","Inner Sunset","7","2026/01/10 12:00:00 AM","2026/02/14 09:35:07 AM"
"CAN-569673","101 CALIFORNIA ST","1001569673","3525000","CALIFORNIA ST: DAVIS ST - FRONT ST","RENAISSANCE / METAL","green","SE","CALIFORNIA ST","DAVIS ST","1999/08/01 12:00:00 AM",,"37.793293","-122.398163","6597a11c-c1a4-4ca2-9bad-09a15d58d492","781","POINT (-122.398163 37.793293)","Financial District/South Beach","3","2025/12/27 12:00:00 AM","2026/02/14 09:35:07 AM"
"CAN-3067220","401 MASONIC AVE","10513067220","8847000","MASONIC AVE: GOLDEN GATE AVE - MCALLISTER ST","RENAISSANCE / METAL","Green",,"MASONIC AVE","GOLDEN GATE AVE","1997/03/18 12:00:00 AM",,"37.777633","-122.446909","7cc4bb70-864e-46a8-af10-f105e47dfcd6","507","POINT (-122.446909 37.777633)","Lone Mountain/USF","1","2026/02/03 12:00:00 AM","2026/02/14 09:35:07 AM"
"CAN-1286780","02ND ST / HARRISON ST | CCAN","10011286780","24510000","02nd St / Harrison St","RENAISSANCE / METAL",,"SW","02ND ST","HARRISON ST","2021/06/23 12:00:00 AM",,"37.784311","-122.395161","23858b4c-648e-4a3d-8cd7-ea0a1bf421b6","1631","POINT (-122.395161 37.784311)","Financial District/South Beach","6","2025/11/14 12:00:00 AM","2026/02/14 09:35:07 AM"
"CAN-1286806","02ND ST / HARRISON ST | CCAN","10011286806","24510000","02nd St / Harrison St","RENAISSANCE / METAL",,"NW","02ND ST","HARRISON ST","2021/06/23 12:00:00 AM",,"37.784311","-122.395161","15298f81-d225-4f38-9ce7-1962519f07c2","1632","POINT (-122.395161 37.784311)","Financial District/South Beach","6","2025/11/14 12:00:00 AM","2026/02/14 09:35:07 AM"
"CAN-1038876","611 FOLSOM ST","10011038876","5660000","FOLSOM ST: 02ND ST - HAWTHORNE ST","RENAISSANCE / METAL",,"SE","FOLSOM ST","02ND ST","2013/05/01 12:00:00 AM",,"37.785236","-122.396836","8b0ee2cb-6c49-4040-8436-e1514afebb04","46","POINT (-122.396836 37.785236)","Financial District/South Beach","6","2026/01/13 12:00:00 AM","2026/02/14 09:35:07 AM"
"CAN-5886510","2690 MISSION ST","10515886510","9124000","MISSION ST: 22ND ST - 23RD ST","RENAISSANCE / METAL",,,"MISSION ST","22ND ST","2016/07/22 12:00:00 AM",,"37.754032","-122.418773","432ac321-3a63-444a-837c-0f74c839e261","893","POINT (-122.418773 37.754032)","Mission","9","2025/08/08 12:00:00 AM","2026/02/14 09:35:07 AM"
"CAN-5251699","6001 CALIFORNIA ST","10515251699","3599000","CALIFORNIA ST: 22ND AVE - 23RD AVE","RENAISSANCE / METAL",,"SW","CALIFORNIA ST","22ND AVE","2011/05/27 12:00:00 AM",,"37.78388","-122.481963","ec5051da-3aab-4603-8651-7f9e938ca826","674","POINT (-122.481963 37.78388)","Outer Richmond","1","2026/02/11 12:00:00 AM","2026/02/14 09:35:07 AM"
"CAN-608117","2302 LEAVENWORTH ST","1001608117","8269000","LEAVENWORTH ST: LOMBARD ST - CHESTNUT ST","RENAISSANCE / METAL",,"NW","LEAVENWORTH ST","LOMBARD ST","2000/01/01 12:00:00 AM",,"37.802407","-122.417444","7a1f2e68-7e88-45c8-816f-3415739b46ab","962","POINT (-122.417444 37.802407)","Russian Hill","3","2026/01/21 12:00:00 AM","2026/02/14 09:35:07 AM"
"CAN-588459","06TH AVE / CALIFORNIA ST | CCAN","1051588459","27596000","06th Ave / California St","RENAISSANCE / METAL","green","NW","06TH AVE","CALIFORNIA ST","1988/01/01 12:00:00 AM",,"37.784994","-122.464572","66485a3e-fc20-4b22-b20a-2b673c7b14f7","2391","POINT (-122.464572 37.784994)","Inner Richmond","1","2026/02/09 12:00:00 AM","2026/02/14 09:35:07 AM"
"CAN-2337566","BAKER ST / BUENA VISTA AVE \ HAIGHT ST | CCAN","10512337566","26033000","Baker St / Buena Vista Ave \ Haight St","RENAISSANCE / METAL",,"NW","BAKER ST","BUENA VISTA AVE \ HAIGHT ST","1992/07/14 12:00:00 AM",,"37.770847","-122.440358","b7e272d3-3e88-47fe-b245-c58cfec70980","1782","POINT (-122.440358 37.770847)","Haight Ashbury","8","2025/12/19 12:00:00 AM","2026/02/14 09:35:07 AM"
"CAN-6102172","900 CLEMENT ST","10516102172","4159000","CLEMENT ST: 10TH AVE - 11TH AVE","RENAISSANCE / METAL",,"NW","CLEMENT ST","10TH AVE","2018/04/09 12:00:00 AM",,"37.782897","-122.468873","111a7e37-c82a-4438-a919-bb10142974fd","976","POINT (-122.468873 37.782897)","Inner Richmond","1","2026/02/09 12:00:00 AM","2026/02/14 09:35:07 AM"
"CAN-2377539","4010 MISSION ST","10512377539","9150000","MISSION ST: BOSWORTH ST \ MURRAY ST - TRUMBULL ST","RENAISSANCE / METAL",,,"MISSION ST","BOSWORTH ST \ MURRAY ST","1992/10/22 12:00:00 AM",,"37.733369","-122.426899","61c798f9-f3df-418f-aaad-e3e3b4b0327e","459","POINT (-122.426899 37.733369)","Outer Mission","8","2025/08/08 12:00:00 AM","2026/02/14 09:35:07 AM"
"CAN-1082916","1885 MISSION ST","10511082916","9114000","MISSION ST: 14TH ST - 15TH ST","RENAISSANCE / METAL",,,"MISSION ST","14TH ST","1988/01/01 12:00:00 AM",,"37.76688","-122.419664","bf067757-a59f-4837-aba7-a36e4304efd4","89","POINT (-122.419664 37.76688)","Mission","9","2025/12/16 12:00:00 AM","2026/02/14 09:35:07 AM"
"CAN-1089424","FILLMORE ST / PINE ST | CCAN","10011089424","26609000","Fillmore St / Pine St","RENAISSANCE / METAL","green","SE","FILLMORE ST","PINE ST","2014/12/01 12:00:00 AM",,"37.78795","-122.433647","234c02ee-a3c8-49ce-960f-ea7ed73767c2","1413","POINT (-122.433647 37.78795)","Pacific Heights","2","2026/01/22 12:00:00 AM","2026/02/14 09:35:07 AM"
"CAN-1040807","2701 HYDE ST","10011040807","7151000","HYDE ST: NORTH POINT ST - BEACH ST","CEMENT / CONCRETE","green","NW","HYDE ST","NORTH POINT ST","2013/05/24 12:00:00 AM",,"37.80574","-122.420443","43483c67-e80c-4b09-9bf5-ea3dea006098","49","POINT (-122.420443 37.80574)","Russian Hill","2","2025/11/20 12:00:00 AM","2026/02/14 09:35:07 AM"
"CAN-6256010","48TH AVE / GREAT HWY \ TARAVAL ST | CCAN","10516256010","23506000","48th Ave / Great Hwy \ Taraval St","RENAISSANCE / METAL",,"S","48TH AVE","GREAT HWY \ TARAVAL ST","2019/08/17 12:00:00 AM",,"37.741673","-122.506865","87a15808-3150-47d2-ac2c-6cc1c1a57578","2557","POINT (-122.506865 37.741673)","Sunset/Parkside","4","2025/12/18 12:00:00 AM","2026/02/14 09:35:07 AM"
"CAN-6510036","2598 FOLSOM ST","10516510036","5696000","FOLSOM ST: 21ST ST - 22ND ST","RENAISSANCE / METAL",,"NW","FOLSOM ST","21ST ST","2021/09/02 12:00:00 AM",,"37.755847","-122.414554","b4ab050b-6c8b-4140-97b4-8684e802a4e7","1164","POINT (-122.414554 37.755847)","Mission","9","2025/11/11 12:00:00 AM","2026/02/14 09:35:07 AM"
"CAN-3359171","3000 21ST ST","10513359171","1105000","21ST ST: FOLSOM ST - SHOTWELL ST","CEMENT / CONCRETE",,,"21ST ST","FOLSOM ST","1998/12/17 12:00:00 AM",,"37.75735","-122.414579","4a5239d3-c505-43f8-9a9c-063632695033","527","POINT (-122.414579 37.75735)","Mission","9","2025/11/11 12:00:00 AM","2026/02/14 09:35:07 AM"
"CAN-1087469","1401 CALIFORNIA ST","10011087469","3547000","CALIFORNIA ST: HYDE ST - LARKIN ST","CEMENT / CONCRETE","green","SE","CALIFORNIA ST","HYDE ST","2014/11/01 12:00:00 AM",,"37.790726","-122.418267","c57d973e-e0d6-41b9-977e-5f04eea4f79c","93","POINT (-122.418267 37.790726)","Nob Hill","3","2025/12/27 12:00:00 AM","2026/02/14 09:35:07 AM"
"CAN-1204031","200 PARNASSUS AVE","10511204031","10289000","PARNASSUS AVE: STANYAN ST - WOODLAND AVE","RENAISSANCE / METAL",,"SW","PARNASSUS AVE","STANYAN ST","1988/01/01 12:00:00 AM",,"37.764581","-122.452869","c0fe0932-1a75-4d96-b7b1-805006c011f1","183","POINT (-122.452869 37.764581)","Inner Sunset","8","2026/01/22 12:00:00 AM","2026/02/14 09:35:07 AM"
"CAN-3056058","18TH ST / VALENCIA ST | CCAN","10513056058","24160000","18th St / Valencia St","RENAISSANCE / METAL",,"SE","18TH ST","VALENCIA ST","1997/02/26 12:00:00 AM",,"37.761701","-122.421578","66594e98-76d1-4532-ba0d-695763e79729","1864","POINT (-122.421578 37.761701)","Mission","9","2025/11/15 12:00:00 AM","2026/02/14 09:35:07 AM"
"CAN-3134269","18TH ST / VALENCIA ST | CCAN","10513134269","24160000","18th St / Valencia St","RENAISSANCE / METAL",,"NE","18TH ST","VALENCIA ST","1997/08/14 12:00:00 AM",,"37.761701","-122.421578","73e8f8ab-c2e2-493e-8786-93d6db7f2f46","1870","POINT (-122.421578 37.761701)","Mission","9","2025/12/05 12:00:00 AM","2026/02/14 09:35:07 AM"
"CAN-395533","18TH ST / VALENCIA ST | CCAN","1051395533","24160000","18th St / Valencia St","RENAISSANCE / METAL",,"NW","18TH ST","VALENCIA ST","1988/01/01 12:00:00 AM",,"37.761701","-122.421578","9cc99c1d-b4cc-45d3-8420-348f9df97831","2033","POINT (-122.421578 37.761701)","Mission","9","2025/11/15 12:00:00 AM","2026/02/14 09:35:07 AM"
"CAN-5502786","18TH ST / VALENCIA ST | CCAN","10515502786","24160000","18th St / Valencia St","RENAISSANCE / METAL",,"NW","18TH ST","VALENCIA ST","2013/05/21 12:00:00 AM",,"37.761701","-122.421578","59353b2e-63e5-4b42-a47e-6aad13f3f98d","2217","POINT (-122.421578 37.761701)","Mission","9","2025/12/05 12:00:00 AM","2026/02/14 09:35:07 AM"
"CAN-1876945","BAY SHORE BLVD / CORTLAND AVE | CCAN","10511876945","21023000","Bay Shore Blvd / Cortland Ave","RENAISSANCE / METAL",,"SW","BAY SHORE BLVD","CORTLAND AVE","1990/03/13 12:00:00 AM",,"37.739566","-122.406979","208fafea-a061-4dc4-9d55-1528ecd3c7a2","1746","POINT (-122.406979 37.739566)","Bayview Hunters Point","10","2025/12/03 12:00:00 AM","2026/02/14 09:35:07 AM"
"CAN-1092386","KING ST  and 2nd st NE corner | CCAN","10011092386","23592000","King St / The Embarcadero \ Townsend St","RENAISSANCE / METAL",,"NE","KING ST","THE EMBARCADERO \ TOWNSEND ST","2014/12/01 12:00:00 AM",,"37.781798","-122.388306","473c9f7a-fa8e-4f09-b146-7a3f249a5961","1462","POINT (-122.388306 37.781798)","Financial District/South Beach","6","2026/01/19 12:00:00 AM","2026/02/14 09:35:07 AM"
"CAN-637389","801 UNION ST","1001637389","12852000","UNION ST: MASON ST - TAYLOR ST","CEMENT / CONCRETE",,,"UNION ST","MASON ST","2000/12/01 12:00:00 AM",,"37.799833","-122.412648","a102cc0d-972f-4de7-8d36-e5d71d62e1e7","1110","POINT (-122.412648 37.799833)","Russian Hill","3","2025/08/08 12:00:00 AM","2026/02/14 09:35:07 AM"
"CAN-4329991","18TH ST / CHURCH ST | CCAN","10514329991","25712000","18th St / Church St","RENAISSANCE / METAL",,"NE","18TH ST","CHURCH ST","2005/01/01 12:00:00 AM",,"37.76129","-122.428354","72cd328a-4dcf-40dd-9bff-55e34186b201","2064","POINT (-122.428354 37.76129)","Castro/Upper Market","8","2025/11/15 12:00:00 AM","2026/02/14 09:35:07 AM"
"CAN-942219","290 TOWNSEND ST","1001942219","12662000","TOWNSEND ST: LUSK ST - 04TH ST","RENAISSANCE / METAL",,"NE","TOWNSEND ST","LUSK ST","2009/11/01 12:00:00 AM",,"37.777744","-122.394733","e0a5d332-c272-45a0-9428-8888d53aa45f","1381","POINT (-122.394733 37.777744)","South of Market","6","2026/01/10 12:00:00 AM","2026/02/14 09:35:07 AM"
"CAN-2459832","1504 BRYANT ST","10512459832","3303000","BRYANT ST: ALAMEDA ST - 15TH ST","CEMENT / CONCRETE",,,"BRYANT ST","ALAMEDA ST","1993/04/08 12:00:00 AM",,"37.768004","-122.41087","cb797771-3ed0-4e11-a47a-d4fb6cc8001e","465","POINT (-122.41087 37.768004)","Mission","9","2025/11/19 12:00:00 AM","2026/02/14 09:35:07 AM"
"CAN-3158722","1896 SAN JOSE AVE","10513158722","11451000","SAN JOSE AVE: SAN JUAN AVE - HAVELOCK ST","CEMENT / CONCRETE",,"NW","SAN JOSE AVE","SAN JUAN AVE","1997/10/10 12:00:00 AM",,"37.726888","-122.441653","d5922bf9-1173-40c6-b4dd-052284ca1d5e","509","POINT (-122.441653 37.726888)","Outer Mission","11","2026/01/23 12:00:00 AM","2026/02/14 09:35:07 AM"
"CAN-5267000","3200 CALIFORNIA ST","10515267000","3566000","CALIFORNIA ST: PRESIDIO AVE - WALNUT ST","RENAISSANCE / METAL",,"NW","CALIFORNIA ST","PRESIDIO AVE","2011/07/05 12:00:00 AM",,"37.78731","-122.447427","e03bc6b2-cbd4-41d6-bff1-26966975887e","691","POINT (-122.447427 37.78731)","Presidio Heights","2","2026/02/11 12:00:00 AM","2026/02/14 09:35:07 AM"
"CAN-1903848","FULTON ST / LA PLAYA | CCAN","10511903848","27978000","Fulton St / La Playa","RENAISSANCE / METAL","green","NE","FULTON ST","LA PLAYA","1990/04/03 12:00:00 AM",,"37.771396","-122.509895","df4e078d-2a8f-4419-a378-4094bb35ba15","1749","POINT (-122.509895 37.771396)","Outer Richmond","1","2026/02/06 12:00:00 AM","2026/02/14 09:35:07 AM"
"CAN-6304091","FULTON ST / LA PLAYA | CCAN","10516304091","27978000","Fulton St / La Playa","RENAISSANCE / METAL","green","NE","FULTON ST","LA PLAYA","2020/01/24 12:00:00 AM",,"37.771396","-122.509895","2f942913-1f68-48bb-add8-a450f69d09f9","2587","POINT (-122.509895 37.771396)","Outer Richmond","1","2026/02/06 12:00:00 AM","2026/02/14 09:35:07 AM"
"CAN-6729081","BAY SHORE BLVD / CORTLAND AVE | CCAN","10516729081","21023000","Bay Shore Blvd / Cortland Ave","RENAISSANCE / METAL",,"NE","BAY SHORE BLVD","CORTLAND AVE","2023/05/19 12:00:00 AM",,"37.739566","-122.406979","9346ae9e-1d96-462e-bbb8-f5fdcc3f681e","2752","POINT (-122.406979 37.739566)","Bayview Hunters Point","10","2026/01/21 12:00:00 AM","2026/02/14 09:35:07 AM"
"CAN-6058739","2808 FOLSOM ST","10516058739","5699000","FOLSOM ST: 24TH ST - 25TH ST","RENAISSANCE / METAL",,"SW","FOLSOM ST","24TH ST","2017/10/10 12:00:00 AM",,"37.752208","-122.414252","c4fb9651-4337-4fa1-99cd-8e85702e7102","953","POINT (-122.414252 37.752208)","Mission","9","2025/11/11 12:00:00 AM","2026/02/14 09:35:07 AM"
"CAN-1092394","BRANNAN ST / THE EMBARCADERO | CCAN","10011092394","23597000","Brannan St / The Embarcadero","RENAISSANCE / METAL",,"SE","BRANNAN ST","THE EMBARCADERO","2014/12/01 12:00:00 AM",,"37.784774","-122.388023","6e41837e-1bbb-41f1-bf5f-63330f8aa3a3","1463","POINT (-122.388023 37.784774)","Financial District/South Beach","6","2025/11/14 12:00:00 AM","2026/02/14 09:35:07 AM"
"CAN-1095991","BRANNAN ST / THE EMBARCADERO | CCAN","10011095991","23597000","Brannan St / The Embarcadero","RENAISSANCE / METAL",,"SW","BRANNAN ST","THE EMBARCADERO","2015/01/15 12:00:00 AM",,"37.784774","-122.388023","bfd9417d-015d-439b-a27b-14654279e7f7","1476","POINT (-122.388023 37.784774)","Financial District/South Beach","6","2026/01/10 12:00:00 AM","2026/02/14 09:35:07 AM"
"CAN-1110311","BRANNAN ST / THE EMBARCADERO | CCAN","10011110311","23597000","Brannan St / The Embarcadero","RENAISSANCE / METAL",,"SW","BRANNAN ST","THE EMBARCADERO","2015/06/24 12:00:00 AM",,"37.784774","-122.388023","03cb738b-f74c-48a4-b37c-6fbca8b10abc","1494","POINT (-122.388023 37.784774)","Financial District/South Beach","6","2026/01/10 12:00:00 AM","2026/02/14 09:35:07 AM"
"CAN-6964527","BRANNAN ST / THE EMBARCADERO | CCAN",,"23597000","Brannan St / The Embarcadero","RENAISSANCE / METAL",,"E","BRANNAN ST","THE EMBARCADERO",,,"37.784774","-122.388023","b66784f7-a71c-4960-a206-563d87ae065c","2871","POINT (-122.388023 37.784774)","Financial District/South Beach","6","2026/01/23 12:00:00 AM","2026/02/14 09:35:07 AM"
"CAN-6964528","BRANNAN ST / THE EMBARCADERO | CCAN",,"23597000","Brannan St / The Embarcadero","RENAISSANCE / METAL",,"SE","BRANNAN ST","THE EMBARCADERO",,,"37.784774","-122.388023","2b56ce73-c62f-4471-9811-ff641caa3d87","2880","POINT (-122.388023 37.784774)","Financial District/South Beach","6","2026/01/23 12:00:00 AM","2026/02/14 09:35:07 AM"
"CAN-5709423","2000 MISSION ST","10515709423","9116000","MISSION ST: 16TH ST - 17TH ST","CEMENT / CONCRETE",,,"MISSION ST","16TH ST","2014/12/01 12:00:00 AM",,"37.764998","-122.419733","719ee9bc-525a-4251-8033-f78a5e1e9362","821","POINT (-122.419733 37.764998)","Mission","9","2025/12/16 12:00:00 AM","2026/02/14 09:35:07 AM"
"CAN-5923180","201 HAIGHT ST","10515923180","6605000","HAIGHT ST: LAGUNA ST - BUCHANAN ST","CEMENT / CONCRETE",,"SW","HAIGHT ST","LAGUNA ST","2016/10/26 12:00:00 AM",,"37.772674","-122.425551","683beaae-389b-423c-b6a3-31e5adbbc848","901","POINT (-122.425551 37.772674)","Hayes Valley","8","2025/12/16 12:00:00 AM","2026/02/14 09:35:07 AM"
"CAN-1090349","BAY ST / LEAVENWORTH ST | CCAN","10011090349","25536000","Bay St / Leavenworth St","CEMENT / CONCRETE",,,"BAY ST","LEAVENWORTH ST","2014/12/01 12:00:00 AM",,"37.804999","-122.418531","25d383db-f637-455a-abe4-75c51faa31cf","1422","POINT (-122.418531 37.804999)","Russian Hill","3","2026/01/30 12:00:00 AM","2026/02/14 09:35:07 AM"
"CAN-6562110","18TH ST / SANCHEZ ST | CCAN","10516562110","25720000","18th St / Sanchez St","RENAISSANCE / METAL",,,"18TH ST","SANCHEZ ST","2022/01/05 12:00:00 AM",,"37.761155","-122.430574","1266c0ae-0dc9-4a74-bc00-a9db91ea75da","2695","POINT (-122.430574 37.761155)","Castro/Upper Market","8","2025/11/15 12:00:00 AM","2026/02/14 09:35:07 AM"
"CAN-4735528","2010 OCEAN AVE","10514735528","9835201","OCEAN AVE: LAKEWOOD AVE - MANOR DR","CEMENT / CONCRETE",,"NW","OCEAN AVE","LAKEWOOD AVE","2007/10/13 12:00:00 AM",,"37.726268","-122.464682","f255cac6-f601-450d-b799-211279bfda6c","627","POINT (-122.464682 37.726268)","West of Twin Peaks","7","2026/01/15 12:00:00 AM","2026/02/14 09:35:07 AM"
"CAN-1311778","LARKIN ST / LOMBARD ST | CCAN","10011311778","25566000","Larkin St / Lombard St","CEMENT / CONCRETE",,"NW","LARKIN ST","LOMBARD ST","2022/04/25 12:00:00 AM",,"37.801758","-122.421258","5f8c8019-5302-4265-b628-3b2c026bea0e","1654","POINT (-122.421258 37.801758)","Russian Hill","3","2026/01/21 12:00:00 AM","2026/02/14 09:35:07 AM"
"CAN-1152552","GREEN ST / LAGUNA ST | CCAN","10011152552","26580000","Green St / Laguna St","CEMENT / CONCRETE",,,"GREEN ST","LAGUNA ST","2017/02/10 12:00:00 AM",,"37.796783","-122.430371","787bacce-5a1f-4f94-9380-3bf616618193","1527","POINT (-122.430371 37.796783)","Marina","2","2025/12/08 12:00:00 AM","2026/02/14 09:35:07 AM"
"CAN-5708953","JOHN F KENNEDY DR: 08TH AVE - HAGIWARA TEA GARDEN DR \ | CCAN","10515708953","07537000","JOHN F KENNEDY DR: 08TH AVE - HAGIWARA TEA GARDEN DR \ MUS","RENAISSANCE / METAL",,"N","JOHN F KENNEDY DR","08TH AVE","2014/12/01 12:00:00 AM",,"37.772596","-122.466191","c23b3555-3ef2-4d73-beec-74f4cff25ecd","2289","POINT (-122.466191 37.772596)","Golden Gate Park","7","2026/02/07 12:00:00 AM","2026/02/14 09:35:07 AM"
"CAN-1163625","01ST ST / HARRISON ST \ I-80 E ON RAMP | CCAN","10011163625","24494000","01st St / Harrison St \ I-80 E On Ramp","RENAISSANCE / METAL",,"NW","01ST ST","HARRISON ST \ I-80 E ON RAMP","2017/06/07 12:00:00 AM",,"37.786068","-122.392937","cdf53079-ab8e-41ce-912e-bddcdfc47f8a","1529","POINT (-122.392937 37.786068)","Financial District/South Beach","6","2025/11/14 12:00:00 AM","2026/02/14 09:35:07 AM"
"CAN-604587","3402 FILLMORE ST","1001604587","5568201","FILLMORE ST: CHESTNUT ST - BAY ST \ CERVANTES BLVD","CEMENT / CONCRETE",,,"FILLMORE ST","CHESTNUT ST","2000/01/01 12:00:00 AM",,"37.800853","-122.436168","35bead66-8282-43c6-b86b-0d61b892b8e9","943","POINT (-122.436168 37.800853)","Marina","2","2025/08/08 12:00:00 AM","2026/02/14 09:35:07 AM"
"CAN-6964516","648 MARKET ST | CCAN",,"08744201","MARKET ST: MONTGOMERY ST \ NEW MONTGOME - GEARY ST","RENAISSANCE / METAL",,"NE","MARKET ST","MONTGOMERY ST \ NEW MONTGOMERY ST",,,"37.788464","-122.40295","86b94b30-e03f-4a11-a771-e6f98be80c46","2883","POINT (-122.40295 37.788464)","Financial District/South Beach","3","2026/01/23 12:00:00 AM","2026/02/14 09:35:07 AM"
"CAN-1083153","111 POWELL ST","10011083153","10676000","POWELL ST: ELLIS ST - OFARRELL ST","CEMENT / CONCRETE",,,"POWELL ST","ELLIS ST","2014/09/01 12:00:00 AM",,"37.785824","-122.40809","9a238209-7fac-4844-b5fb-16c64615bcb7","90","POINT (-122.40809 37.785824)","Tenderloin","3","2026/01/22 12:00:00 AM","2026/02/14 09:35:07 AM"
"CAN-6953632","24TH AVE / SANTIAGO ST | CCAN","10516953632","23262000","24th Ave / Santiago St","RENAISSANCE / METAL",,"SE","24TH AVE","SANTIAGO ST","2025/04/21 12:00:00 AM",,"37.744681","-122.481181","765e541c-7401-457f-9c1d-d19a938d3b62","2789","POINT (-122.481181 37.744681)","Sunset/Parkside","4","2025/12/05 12:00:00 AM","2026/02/14 09:35:07 AM"
"CAN-6606206","450 CHURCH ST","10516606206","4013000","CHURCH ST: CHULA LN - 17TH ST","RENAISSANCE / METAL",,,"CHURCH ST","CHULA LN","2022/05/01 12:00:00 AM",,"37.764344","-122.429052","e27e8034-5cf7-4fcf-9c38-63d9e9d6ad0b","1198","POINT (-122.429052 37.764344)","Castro/Upper Market","8","2025/12/24 12:00:00 AM","2026/02/14 09:35:07 AM"
"CAN-2457935","510 FREDERICK ST","10512457935","5854000","FREDERICK ST: STANYAN ST - WILLARD ST","RENAISSANCE / METAL",,"NW","FREDERICK ST","STANYAN ST","1993/04/13 12:00:00 AM",,"37.766432","-122.453375","fcf7f771-4aae-462c-8e4f-2a411f65a76c","464","POINT (-122.453375 37.766432)","Golden Gate Park","5","2026/02/09 12:00:00 AM","2026/02/14 09:35:07 AM"
"CAN-5971148","2400 IRVING ST","10515971148","7302000","IRVING ST: 25TH AVE - 26TH AVE","RENAISSANCE / METAL",,"NE","IRVING ST","25TH AVE","2017/02/24 12:00:00 AM",,"37.76339","-122.483845","1ebfe8a3-7c90-4316-9e2f-45d7dddac0fe","906","POINT (-122.483845 37.76339)","Sunset/Parkside","4","2026/01/09 12:00:00 AM","2026/02/14 09:35:07 AM"
"CAN-5452289","899 14TH ST","10515452289","599000","14TH ST: WALTER ST - NOE ST","RENAISSANCE / METAL",,,"14TH ST","WALTER ST","2012/12/04 12:00:00 AM",,"37.767409","-122.43337","bf49ba8c-a046-446d-8c77-b6657b7c8b41","706","POINT (-122.43337 37.767409)","Castro/Upper Market","8","2025/08/08 12:00:00 AM","2026/02/14 09:35:07 AM"
"CAN-3543535","HAYES ST / PIERCE ST| CCAN","10513543535","26041000","Hayes St / Steiner St","RENAISSANCE / METAL",,"NE","HAYES ST","STEINER ST","2000/02/10 12:00:00 AM",,"37.775626","-122.43283","bcb0e233-d4e1-4019-925c-08c7fef4259a","1957","POINT (-122.43283 37.775626)","Hayes Valley","5","2026/02/05 12:00:00 AM","2026/02/14 09:35:07 AM"
"CAN-569517","401 CALIFORNIA ST","1001569517","3528000","CALIFORNIA ST: SANSOME ST - LEIDESDORFF ST","RENAISSANCE / METAL","green","SE","CALIFORNIA ST","SANSOME ST","1999/08/01 12:00:00 AM",,"37.793003","-122.40114","54ed270f-43c9-4272-b6e8-3f08a21d0292","778","POINT (-122.40114 37.793003)","Financial District/South Beach","3","2025/12/27 12:00:00 AM","2026/02/14 09:35:07 AM"
"CAN-1293174","116 FOLSOM ST","10011293174","5651000","FOLSOM ST: SPEAR ST - MAIN ST","RENAISSANCE / METAL",,,"FOLSOM ST","SPEAR ST","2021/08/09 12:00:00 AM",,"37.790075","-122.391393","2651cc39-8429-4e9b-bdfa-7d8edebd9d1f","281","POINT (-122.391393 37.790075)","Financial District/South Beach","6","2025/08/08 12:00:00 AM","2026/02/14 09:35:07 AM"
"CAN-6813232","1801 HAIGHT ST","10516813232","6624000","HAIGHT ST: SHRADER ST - STANYAN ST","RENAISSANCE / METAL",,"NW","HAIGHT ST","SHRADER ST","2024/03/07 12:00:00 AM",,"37.769318","-122.451905","19ed595d-81e1-47b4-a592-2586ac51cbf1","1265","POINT (-122.451905 37.769318)","Haight Ashbury","5","2026/01/01 12:00:00 AM","2026/02/14 09:35:07 AM"
"CAN-2471332","1895 EDDY ST","10512471332","5075000","EDDY ST: SCOTT ST - DIVISADERO ST","CEMENT / CONCRETE",,"SE","EDDY ST","SCOTT ST","1993/04/21 12:00:00 AM",,"37.780549","-122.438802","c0883841-c623-42a7-aac7-b9f049d5afc6","467","POINT (-122.438802 37.780549)","Western Addition","5","2026/01/12 12:00:00 AM","2026/02/14 09:35:07 AM"
"CAN-3808409","DARIEN WAY / SAN RAFAEL WAY | CCAN","10513808409","22796000","Darien Way / San Rafael Way","CEMENT / CONCRETE",,"SE","DARIEN WAY","SAN RAFAEL WAY","2001/11/01 12:00:00 AM",,"37.731908","-122.470509","95395493-c261-432c-b621-e7fa049ca6c0","2019","POINT (-122.470509 37.731908)","West of Twin Peaks","7","2025/11/11 12:00:00 AM","2026/02/14 09:35:07 AM"
"CAN-6502264","20TH ST / NOE ST | CCAN","10516502264","25715000","20th St / Noe St","RENAISSANCE / METAL",,,"20TH ST","NOE ST","2021/08/20 12:00:00 AM",,"37.757821","-122.432484","ad666c52-2c60-417f-bb88-290c19225d9a","2650","POINT (-122.432484 37.757821)","Castro/Upper Market","8","2025/11/15 12:00:00 AM","2026/02/14 09:35:07 AM"
"CAN-1001080","LARKIN ST / MCALLISTER ST | CCAN","10011001080","24439000","Larkin St / McAllister St","CEMENT / CONCRETE",,"SW","LARKIN ST","MCALLISTER ST","2011/12/13 12:00:00 AM",,"37.78047","-122.416948","e21f6d7a-f925-4e8c-aea5-0359f9f21a2e","2824","POINT (-122.416948 37.78047)","Tenderloin","5","2026/01/24 12:00:00 AM","2026/02/14 09:35:07 AM"
"CAN-919365","2 MONTGOMERY ST","1001919365","9297000","MONTGOMERY ST: POST ST - SUTTER ST","RENAISSANCE / METAL",,"NE","MONTGOMERY ST","POST ST","2009/01/01 12:00:00 AM",,"37.789383","-122.401906","3eb4e4b7-d5d4-44a7-a24c-6e573b8c66c2","1378","POINT (-122.401906 37.789383)","Financial District/South Beach","3","2026/01/17 12:00:00 AM","2026/02/14 09:35:07 AM"
"CAN-5707302","2400 BRYANT ST","10515707302","3312000","BRYANT ST: 22ND ST - 23RD ST","RENAISSANCE / METAL",,,"BRYANT ST","22ND ST","2014/12/01 12:00:00 AM",,"37.755823","-122.40958","3b5a1e2d-9faf-47ef-a95e-893004f45d2c","792","POINT (-122.40958 37.755823)","Mission","9","2025/08/08 12:00:00 AM","2026/02/14 09:35:07 AM"
"CAN-604546","3299 FILLMORE ST","1001604546","5566000","FILLMORE ST: MOULTON ST - LOMBARD ST","RENAISSANCE / METAL",,,"FILLMORE ST","MOULTON ST","2000/01/01 12:00:00 AM",,"37.799822","-122.436112","855840e3-6925-4faf-ba78-ecc11babd76d","2942","POINT (-122.436112 37.799822)","Marina","2","2026/02/13 12:00:00 AM","2026/02/14 09:35:07 AM"
"CAN-1985381","20TH AVE / BUCKINGHAM WAY \ WINSTON DR | CCAN","10511985381","33717000","20th Ave / Buckingham Way \ Winston Dr","CEMENT / CONCRETE",,"SW","20TH AVE","BUCKINGHAM WAY \ WINSTON DR","1990/09/13 12:00:00 AM",,"37.730119","-122.475937","6e11b8bb-7a56-495f-b512-968d29261cdd","1756","POINT (-122.475937 37.730119)","Lakeshore","4","2026/02/04 12:00:00 AM","2026/02/14 09:35:07 AM"
"CAN-1091180","1161 POST ST","10011091180","10640000","POST ST: POLK ST - VAN NESS AVE","RENAISSANCE / METAL",,"SE","POST ST","POLK ST","2014/12/01 12:00:00 AM",,"37.786564","-122.420911","bd0ba0df-d7ed-42e3-95ac-5c43a3bcdd30","111","POINT (-122.420911 37.786564)","Tenderloin","3","2026/01/22 12:00:00 AM","2026/02/14 09:35:07 AM"
"CAN-6520126","24TH ST / CAPP ST | CCAN","10516520126","24070000","24th St / Capp St","RENAISSANCE / METAL",,"SW","24TH ST","CAPP ST","2021/09/22 12:00:00 AM",,"37.752306","-122.417358","84827a72-531f-40fc-94c2-9d72791b4496","2677","POINT (-122.417358 37.752306)","Mission","9","2025/12/23 12:00:00 AM","2026/02/14 09:35:07 AM"
"CAN-3034451","32ND AVE / NORIEGA ST | CCAN","10513034451","27679000","32nd Ave / Noriega St","RENAISSANCE / METAL",,"SW","32ND AVE","NORIEGA ST","1997/01/01 12:00:00 AM",,"37.753627","-122.490401","e8b4635a-2a89-40ed-b203-1f1cfa826b36","1858","POINT (-122.490401 37.753627)","Sunset/Parkside","4","2026/01/19 12:00:00 AM","2026/02/14 09:35:07 AM"
"CAN-5706734","32ND AVE / NORIEGA ST | CCAN","10515706734","27679000","32nd Ave / Noriega St","RENAISSANCE / METAL",,"NW","32ND AVE","NORIEGA ST","2014/12/01 12:00:00 AM",,"37.753627","-122.490401","2600b18d-2efa-46f6-b658-53e2926fc841","2250","POINT (-122.490401 37.753627)","Sunset/Parkside","4","2026/01/19 12:00:00 AM","2026/02/14 09:35:07 AM"
"CAN-989277","1650 FILLMORE ST","1001989277","5547000","FILLMORE ST: GEARY BLVD - POST ST","RENAISSANCE / METAL","green","NW","FILLMORE ST","GEARY BLVD","2011/07/01 12:00:00 AM",,"37.78477","-122.432932","5e839634-5d20-40d5-a34f-515514977b32","1385","POINT (-122.432932 37.78477)","Japantown","5","2026/01/21 12:00:00 AM","2026/02/14 09:35:07 AM"
"CAN-6505903","20TH ST / MISSION ST | CCAN","10516505903","24144000","20th St / Mission St","RENAISSANCE / METAL",,"NW","20TH ST","MISSION ST","2021/08/26 12:00:00 AM",,"37.758633","-122.419053","8e7a7893-e04a-404e-bbed-4a6741c4bd5b","2661","POINT (-122.419053 37.758633)","Mission","9","2025/11/13 12:00:00 AM","2026/02/14 09:35:07 AM"
"CAN-653261","610 CLEMENT ST","1051653261","4156000","CLEMENT ST: 07TH AVE - 08TH AVE","RENAISSANCE / METAL",,,"CLEMENT ST","07TH AVE","1988/01/01 12:00:00 AM",,"37.783011","-122.465754","8b454422-740e-4285-9b60-43a04e0feb29","1175","POINT (-122.465754 37.783011)","Inner Richmond","1","2025/08/08 12:00:00 AM","2026/02/14 09:35:07 AM"
"CAN-1074228","2200 LAGUNA ST","10011074228","7971000","LAGUNA ST: CLAY ST - WASHINGTON ST","RENAISSANCE / METAL",,"NW","LAGUNA ST","CLAY ST","2014/05/12 12:00:00 AM",,"37.791371","-122.429224","77cc9952-8072-4da0-85a9-ffaf3dcce517","88","POINT (-122.429224 37.791371)","Pacific Heights","2","2026/01/23 12:00:00 AM","2026/02/14 09:35:07 AM"
"CAN-1393529","60 06TH ST","10011393529","327000","06TH ST: STEVENSON ST - JESSIE ST","RENAISSANCE / METAL",,"NE","06TH ST","STEVENSON ST","2025/06/13 12:00:00 AM",,"37.781415","-122.409521","f39e62d6-bf78-4fe2-bb4e-44e24ed27023","410","POINT (-122.409521 37.781415)","South of Market","6","2026/01/06 12:00:00 AM","2026/02/14 09:35:07 AM"
"CAN-1104660","200 FRANKLIN ST","10011104660","5800000","FRANKLIN ST: FELL ST - LINDEN ST","RENAISSANCE / METAL",,"NE","FRANKLIN ST","FELL ST","2015/04/01 12:00:00 AM",,"37.776181","-122.421083","da4b3517-8ab1-4ffe-b8dc-de2eb412e30f","128","POINT (-122.421083 37.776181)","Hayes Valley","5","2026/01/22 12:00:00 AM","2026/02/14 09:35:07 AM"
"CAN-3368867","1999 MISSION ST","10513368867","9115000","MISSION ST: 15TH ST - 16TH ST","CEMENT / CONCRETE",,,"MISSION ST","15TH ST","1999/01/28 12:00:00 AM",,"37.765277","-122.419513","6ee57d43-a270-47a4-b503-de49c73289ed","534","POINT (-122.419513 37.765277)","Mission","9","2025/12/16 12:00:00 AM","2026/02/14 09:35:07 AM"
"CAN-571372","202 POST ST","1001571372","10627000","POST ST: GRANT AVE - STOCKTON ST","RENAISSANCE / METAL",,"NW","POST ST","GRANT AVE","1999/08/01 12:00:00 AM",,"37.788739","-122.405308","86efd53f-3bcd-4504-bdef-ef878e7bcad2","829","POINT (-122.405308 37.788739)","Financial District/South Beach","3","2026/01/22 12:00:00 AM","2026/02/14 09:35:07 AM"
"CAN-5258975","18TH AVE / FULTON ST | CCAN","10515258975","27462000","18th Ave / Fulton St","RENAISSANCE / METAL","green","SE","18TH AVE","FULTON ST","2011/06/01 12:00:00 AM",,"37.772913","-122.476694","283cbe09-f3db-41aa-87b0-891e4e1ee80c","2159","POINT (-122.476694 37.772913)","Outer Richmond","1","2026/02/06 12:00:00 AM","2026/02/14 09:35:07 AM"
"CAN-5708508","18TH AVE / FULTON ST | CCAN","10515708508","27462000","18th Ave / Fulton St","RENAISSANCE / METAL","green","NW","18TH AVE","FULTON ST","2014/12/01 12:00:00 AM",,"37.772913","-122.476694","1fbd7da6-4718-47cf-8039-c32ccb986949","2275","POINT (-122.476694 37.772913)","Outer Richmond","1","2026/02/06 12:00:00 AM","2026/02/14 09:35:07 AM"
"CAN-746891","2798 LOMBARD ST","1001746891","8467000","LOMBARD ST: BAKER ST - LYON ST","CEMENT / CONCRETE",,,"LOMBARD ST","BAKER ST","2003/08/01 12:00:00 AM",,"37.798518","-122.447274","ebc311ce-6a7d-4d5f-b1a2-f5a64af7c718","1318","POINT (-122.447274 37.798518)","Marina","2","2025/08/08 12:00:00 AM","2026/02/14 09:35:07 AM"
"CAN-1248327","04TH ST / BERRY ST | CCAN","10011248327","23797000","04th St / Berry St","CEMENT / CONCRETE","Gray","NW","04TH ST","BERRY ST","2020/06/12 12:00:00 AM",,"37.775787","-122.393355","c4375732-6a96-4a71-b2e0-3fc1b80e7ac9","1596","POINT (-122.393355 37.775787)","Mission Bay","6","2026/02/10 12:00:00 AM","2026/02/14 09:35:07 AM"
"CAN-919092","298 PINE ST","1001919092","10455000","PINE ST: BATTERY ST - SANSOME ST","RENAISSANCE / METAL",,,"PINE ST","BATTERY ST","2009/01/01 12:00:00 AM",,"37.792167","-122.400909","3ae24024-e4cc-4306-ae5e-88fa58fb4d87","1377","POINT (-122.400909 37.792167)","Financial District/South Beach","3","2025/08/08 12:00:00 AM","2026/02/14 09:35:07 AM"
"CAN-6559496","4175 MISSION ST","10516559496","9151201","MISSION ST: TRUMBULL ST - NEY ST","RENAISSANCE / METAL",,"SE","MISSION ST","TRUMBULL ST","2022/01/01 12:00:00 AM",,"37.730769","-122.42936","c1d3e0fc-1b00-4977-af26-6d8f9c45218c","1179","POINT (-122.42936 37.730769)","Outer Mission","11","2025/12/19 12:00:00 AM","2026/02/14 09:35:07 AM"
"CAN-837567","09TH AVE / GEARY BLVD | CCAN","1051837567","27289000","09th Ave / Geary Blvd","RENAISSANCE / METAL",,"SE","09TH AVE","GEARY BLVD","1988/01/01 12:00:00 AM",,"37.78088","-122.467488","8efdd635-b3a7-482e-b1c3-1a07807003fd","2807","POINT (-122.467488 37.78088)","Inner Richmond","1","2026/02/07 12:00:00 AM","2026/02/14 09:35:07 AM"
"CAN-5300595","MARTIN LUTHER KIN: 09TH AVE - NANCY PELOSI DR | CCAN","10515300595","11984000","MARTIN LUTHER KING : 09TH AVE - NANCY PELOSI DR","RENAISSANCE / METAL",,"NE","MARTIN LUTHER KING JR DR","09TH AVE","2011/09/21 12:00:00 AM",,"37.767265","-122.466536","c2c0845c-884a-46de-8488-c3ce676458d6","2173","POINT (-122.466536 37.767265)","Golden Gate Park","7","2026/02/07 12:00:00 AM","2026/02/14 09:35:07 AM"
"CAN-4797262","4101 03RD ST","10514797262","205101","03RD ST: HUDSON AVE - INNES AVE","RENAISSANCE / METAL","Green","SE","03RD ST","HUDSON AVE","2008/04/08 12:00:00 AM",,"37.739974","-122.388665","5d9d35d2-95a0-4824-8a69-48303a561976","631","POINT (-122.388665 37.739974)","Bayview Hunters Point","10","2025/12/20 12:00:00 AM","2026/02/14 09:35:07 AM"
"CAN-635052","1002 SANSOME ST","1001635052","11556000","SANSOME ST: VALLEJO ST - GREEN ST","CEMENT / CONCRETE","green","E","SANSOME ST","VALLEJO ST","2000/11/17 12:00:00 AM",,"37.799436","-122.402361","a8b1905c-3ff5-4f1d-9ddd-665b5eca5e92","1088","POINT (-122.402361 37.799436)","Financial District/South Beach","3","2026/01/17 12:00:00 AM","2026/02/14 09:35:07 AM"
"CAN-5502737","19TH ST / SOUTH VAN NESS AVE | CCAN","10515502737","24129000","19th St / South Van Ness Ave","RENAISSANCE / METAL",,"SE","19TH ST","SOUTH VAN NESS AVE","2013/05/21 12:00:00 AM",,"37.760367","-122.417026","23fac6cd-e31c-47ac-83a3-248e81972fe5","2216","POINT (-122.417026 37.760367)","Mission","9","2026/01/12 12:00:00 AM","2026/02/14 09:35:07 AM"
"CAN-1237833","CALIFORNIA ST / PRESIDIO AVE | CCAN","10511237833","26846000","California St / Presidio Ave","RENAISSANCE / METAL",,"NW","CALIFORNIA ST","PRESIDIO AVE","1988/01/01 12:00:00 AM",,"37.787262","-122.446793","1732669f-a72d-4094-a06c-6053017b7450","1569","POINT (-122.446793 37.787262)","Presidio Heights","2","2026/02/11 12:00:00 AM","2026/02/14 09:35:07 AM"
"CAN-586487","CALIFORNIA ST / PRESIDIO AVE | CCAN","1051586487","26846000","California St / Presidio Ave","RENAISSANCE / METAL",,"SW","CALIFORNIA ST","PRESIDIO AVE","1988/01/01 12:00:00 AM",,"37.787262","-122.446793","15ad03bc-ed46-4c16-ab55-870d487df29f","2388","POINT (-122.446793 37.787262)","Presidio Heights","2","2025/12/03 12:00:00 AM","2026/02/14 09:35:07 AM"
"CAN-1020122","199 BUSH ST","10011020122","3420000","BUSH ST: BATTERY ST - SANSOME ST","RENAISSANCE / METAL","green","SE","BUSH ST","BATTERY ST","2012/08/01 12:00:00 AM",,"37.791127","-122.400698","d318357d-60aa-47ae-bdbd-2d52d00d808d","25","POINT (-122.400698 37.791127)","Financial District/South Beach","3","2026/01/15 12:00:00 AM","2026/02/14 09:35:07 AM"
"CAN-6729123","2450 MARKET ST","10516729123","8768201","MARKET ST: 17TH ST \ CASTRO ST - COLLINGWOOD ST","RENAISSANCE / METAL",,,"MARKET ST","17TH ST \ CASTRO ST","2023/05/19 12:00:00 AM",,"37.762565","-122.435964","11b3f9e6-f4d5-427f-8842-9b84dbc55fe2","1240","POINT (-122.435964 37.762565)","Castro/Upper Market","8","2025/08/08 12:00:00 AM","2026/02/14 09:35:07 AM"
"CAN-1021161","200 CALIFORNIA ST","10011021161","3526000","CALIFORNIA ST: FRONT ST - BATTERY ST","RENAISSANCE / METAL","green","SE","CALIFORNIA ST","FRONT ST","2012/09/01 12:00:00 AM","2025/12/26 12:00:00 AM","37.793459","-122.398994","91a779b5-bfea-4a55-a23b-426fa69cf36e","26","POINT (-122.398994 37.793459)","Financial District/South Beach","3","2025/12/27 12:00:00 AM","2026/02/14 09:35:07 AM"
"CAN-6519201","16TH ST / HARRISON ST \ TREAT AVE | CCAN","10516519201","24055000","16th St / Harrison St \ Treat Ave","RENAISSANCE / METAL",,"NE","16TH ST","HARRISON ST \ TREAT AVE","2021/09/21 12:00:00 AM",,"37.765448","-122.413105","d8604ae0-506d-405c-b2e2-f93b51197f2c","2675","POINT (-122.413105 37.765448)","Mission","9","2025/12/05 12:00:00 AM","2026/02/14 09:35:07 AM"
"CAN-5258959","400 SPRUCE ST","10515258959","12061000","SPRUCE ST: SACRAMENTO ST - CALIFORNIA ST","CEMENT / CONCRETE",,,"SPRUCE ST","SACRAMENTO ST","2011/06/01 12:00:00 AM",,"37.787325","-122.453519","30870898-7756-4947-ae9a-471e042ad98c","688","POINT (-122.453519 37.787325)","Presidio Heights","2","2026/01/26 12:00:00 AM","2026/02/14 09:35:07 AM"
"CAN-1016914","198 GROVE ST","10011016914","6554000","GROVE ST: DR CARLTON B GOODLETT PL \ P - VAN NESS AVE","CEMENT / CONCRETE",,"NE","GROVE ST","DR CARLTON B GOODLETT PL \ POLK ST","2012/07/01 12:00:00 AM",,"37.778316","-122.419856","e6406eb5-f4ca-43d5-b967-d87a75d3bd0d","16","POINT (-122.419856 37.778316)","Tenderloin","5","2026/01/26 12:00:00 AM","2026/02/14 09:35:07 AM"
"CAN-3362647","3830 CALIFORNIA ST","10513362647","3575000","CALIFORNIA ST: JORDAN AVE - PALM AVE","RENAISSANCE / METAL",,"NW","CALIFORNIA ST","JORDAN AVE","1999/01/15 12:00:00 AM",,"37.786015","-122.457597","39c15594-8c76-489e-80d5-0f84c8598fe4","531","POINT (-122.457597 37.786015)","Presidio Heights","2","2026/02/11 12:00:00 AM","2026/02/14 09:35:07 AM"
"CAN-635383","1241 STOCKTON ST","1001635383","12208000","STOCKTON ST: PACIFIC AVE - STARK ST","RENAISSANCE / METAL","green","E","STOCKTON ST","PACIFIC AVE","2000/11/17 12:00:00 AM",,"37.797221","-122.408712","707fdab4-a717-4c9e-928e-c82b9e04e9d3","1091","POINT (-122.408712 37.797221)","Chinatown","3","2026/01/03 12:00:00 AM","2026/02/14 09:35:07 AM"
"CAN-6181929","2492 MISSION ST","10516181929","9122002","MISSION ST: CATHERINE CT - 21ST ST","RENAISSANCE / METAL",,,"MISSION ST","CATHERINE CT","2018/12/13 12:00:00 AM",,"37.757164","-122.418965","b0b2b5b4-b56c-4707-9b91-c2a7a277c396","1005","POINT (-122.418965 37.757164)","Mission","9","2025/08/08 12:00:00 AM","2026/02/14 09:35:07 AM"
"CAN-1041300","590 BATTERY ST","10011041300","2760000","BATTERY ST: WASHINGTON ST - JACKSON ST","CEMENT / CONCRETE","green","E","BATTERY ST","WASHINGTON ST","2013/05/01 12:00:00 AM",,"37.79669","-122.400592","09b61ecf-42e8-4eee-bfe1-40d60f30a601","50","POINT (-122.400592 37.79669)","Financial District/South Beach","3","2026/01/16 12:00:00 AM","2026/02/14 09:35:07 AM"
"CAN-4352878","3140 26TH ST","10514352878","1515000","26TH ST: HARRISON ST - TREAT AVE \ TREAT WAY","RENAISSANCE / METAL",,,"26TH ST","HARRISON ST","2005/03/01 12:00:00 AM",,"37.749437","-122.412488","d69f4376-7791-478c-8cb5-82e02eb48234","608","POINT (-122.412488 37.749437)","Mission","9","2025/08/08 12:00:00 AM","2026/02/14 09:35:07 AM"
"CAN-1985159","BUCKINGHAM WAY / WINSTON DR | CCAN","10511985159","33513000","Buckingham Way / Winston Dr","CEMENT / CONCRETE",,"NW","BUCKINGHAM WAY","WINSTON DR","1990/09/20 12:00:00 AM",,"37.728211","-122.478698","d00aa6ab-e942-4ee6-9d05-6a1cb1329e17","1753","POINT (-122.478698 37.728211)","Lakeshore","7","2026/01/16 12:00:00 AM","2026/02/14 09:35:07 AM"
"CAN-6321749","BUCKINGHAM WAY / WINSTON DR | CCAN","10516321749","33513000","Buckingham Way / Winston Dr","CEMENT / CONCRETE",,"E","BUCKINGHAM WAY","WINSTON DR","2020/03/28 12:00:00 AM",,"37.728211","-122.478698","1419d54f-d60b-4a02-b88c-f34125169b42","2593","POINT (-122.478698 37.728211)","Lakeshore","7","2026/02/04 12:00:00 AM","2026/02/14 09:35:07 AM"
"CAN-1293166","280 SPEAR ST","10011293166","12046000","SPEAR ST: HOWARD ST - FOLSOM ST","RENAISSANCE / METAL",,,"SPEAR ST","HOWARD ST","2021/08/09 12:00:00 AM",,"37.790072","-122.391841","b2da5eba-f967-4c66-8cfd-a8b424a2f133","280","POINT (-122.391841 37.790072)","Financial District/South Beach","6","2025/08/08 12:00:00 AM","2026/02/14 09:35:07 AM"
"CAN-2600781","05TH AVE / FULTON ST | CCAN","10512600781","27239000","05th Ave / Fulton St","RENAISSANCE / METAL","green","S","05TH AVE","FULTON ST","1994/02/10 12:00:00 AM",,"37.77376","-122.462684","48c90f26-4787-44e2-a526-f890073a50aa","2923","POINT (-122.462684 37.77376)","Inner Richmond","1","2026/02/12 12:00:00 AM","2026/02/14 09:35:07 AM"
"CAN-753996","2196 SACRAMENTO ST","1001753996","11252000","SACRAMENTO ST: OCTAVIA ST - LAGUNA ST","RENAISSANCE / METAL",,"N","SACRAMENTO ST","OCTAVIA ST","2003/09/01 12:00:00 AM",,"37.790524","-122.429022","4e329384-1409-44b0-b7a2-2c3a9de77d93","1351","POINT (-122.429022 37.790524)","Pacific Heights","2","2026/01/14 12:00:00 AM","2026/02/14 09:35:07 AM"
"CAN-1339944","1466 LEAVENWORTH ST","10011339944","8253000","LEAVENWORTH ST: WASHINGTON ST - JACKSON ST","CEMENT / CONCRETE",,"N","LEAVENWORTH ST","WASHINGTON ST","2023/07/01 12:00:00 AM",,"37.794605","-122.416242","4707504c-a714-4a34-8e5d-c1d4853952f6","339","POINT (-122.416242 37.794605)","Nob Hill","3","2026/01/21 12:00:00 AM","2026/02/14 09:35:07 AM"
"CAN-6266548","1001 OAK ST","10516266548","9760000","OAK ST: SCOTT ST - DIVISADERO ST","RENAISSANCE / METAL",,"SW","OAK ST","SCOTT ST","2019/09/13 12:00:00 AM",,"37.773285","-122.435791","cdae64fa-387d-4c43-be4d-28ea5a9ffa43","1037","POINT (-122.435791 37.773285)","Haight Ashbury","5","2026/02/04 12:00:00 AM","2026/02/14 09:35:07 AM"
"CAN-5248323","2015 STEINER ST","10515248323","12139000","STEINER ST: PINE ST - CALIFORNIA ST","CEMENT / CONCRETE","green","NW","STEINER ST","PINE ST","2011/05/19 12:00:00 AM",,"37.787913","-122.435466","46e020ca-3b29-4a2f-bd3a-abdebf33acfa","670","POINT (-122.435466 37.787913)","Pacific Heights","2","2026/01/22 12:00:00 AM","2026/02/14 09:35:07 AM"
"CAN-3371242","APTOS AVE / OCEAN AVE | CCAN","10513371242","22757000","Aptos Ave / Ocean Ave","RENAISSANCE / METAL",,"NE","APTOS AVE","OCEAN AVE","1999/02/04 12:00:00 AM",,"37.728329","-122.467739","f606c7bd-71d2-41a8-b009-aa878c67c8f8","1928","POINT (-122.467739 37.728329)","West of Twin Peaks","7","2026/01/23 12:00:00 AM","2026/02/14 09:35:07 AM"
"CAN-1091487","LEAVENWORTH ST / UNION ST | CCAN","10011091487","25509000","Leavenworth St / Union St","RENAISSANCE / METAL",,"NW","LEAVENWORTH ST","UNION ST","2014/12/01 12:00:00 AM",,"37.799413","-122.417385","32b4ff11-1b50-4fd5-9ba2-3530b50575b6","1444","POINT (-122.417385 37.799413)","Russian Hill","3","2025/11/11 12:00:00 AM","2026/02/14 09:35:07 AM"
"CAN-6964477","995 POTRERO AVE | CCAN",,"10667101","POTRERO AVE: 21ST ST - 22ND ST","RENAISSANCE / METAL",,"NE","POTRERO AVE","21ST ST",,,"37.758027","-122.4066","cf926f34-ebe0-4bbf-b663-55a29ce57a0b","2839","POINT (-122.4066 37.758027)","Mission","10","2025/12/17 12:00:00 AM","2026/02/14 09:35:07 AM"
"CAN-6078984","1500 OCEAN AVE","10516078984","9826201","OCEAN AVE: MIRAMAR AVE - CAPITOL AVE","RENAISSANCE / METAL",,"NW","OCEAN AVE","MIRAMAR AVE","2018/01/01 12:00:00 AM",,"37.724516","-122.458444","a7c85ea5-fff2-41e1-b7a7-00eb50c571e0","960","POINT (-122.458444 37.724516)","West of Twin Peaks","7","2026/01/15 12:00:00 AM","2026/02/14 09:35:07 AM"
"CAN-3397767","18TH ST / CAROLINA ST | CCAN","10513397767","23748000","18th St / Carolina St","CEMENT / CONCRETE","Green","S","18TH ST","CAROLINA ST","1999/03/01 12:00:00 AM",,"37.762346","-122.400389","54274c7f-5f66-4f5b-a38f-283a9476f59d","1944","POINT (-122.400389 37.762346)","Potrero Hill","10","2026/01/28 12:00:00 AM","2026/02/14 09:35:07 AM"
"CAN-1197300","255 03RD ST","10011197300","168000","03RD ST: HOWARD ST - CLEMENTINA ST","RENAISSANCE / METAL",,,"03RD ST","HOWARD ST","2018/09/13 12:00:00 AM",,"37.784704","-122.399382","c4f126be-5fed-4683-8a8e-273e902add57","175","POINT (-122.399382 37.784704)","Financial District/South Beach","6","2025/08/08 12:00:00 AM","2026/02/14 09:35:07 AM"
"CAN-5921580","599 DIVISADERO ST","10515921580","4802101","DIVISADERO ST: FELL ST - HAYES ST","RENAISSANCE / METAL",,"SW","DIVISADERO ST","FELL ST","2016/10/21 12:00:00 AM",,"37.774853","-122.437933","59421470-bd89-4b4e-a7f5-90f69f1098ef","899","POINT (-122.437933 37.774853)","Hayes Valley","5","2026/01/17 12:00:00 AM","2026/02/14 09:35:07 AM"
"CAN-5708334","1180 STANYAN ST","10515708334","12098000","STANYAN ST: ALMA ST - RIVOLI ST","RENAISSANCE / METAL",,"SE","STANYAN ST","ALMA ST","2014/12/01 12:00:00 AM",,"37.762672","-122.452129","fd97ddb7-06bb-4bdd-a993-c2e066b8851b","809","POINT (-122.452129 37.762672)","Haight Ashbury","8","2026/02/06 12:00:00 AM","2026/02/14 09:35:07 AM"
"CAN-587592","2 COLUMBUS AVE","1001587592","4286000","COLUMBUS AVE: MONTGOMERY ST \ WASHINGTON S - GIBB ST \ ILS LN","RENAISSANCE / METAL",,,"COLUMBUS AVE","MONTGOMERY ST \ WASHINGTON ST","1999/08/01 12:00:00 AM",,"37.795589","-122.403293","929963df-8d32-49e0-95e7-b9d7d29eaab2","889","POINT (-122.403293 37.795589)","Chinatown","3","2025/08/08 12:00:00 AM","2026/02/14 09:35:07 AM"
"CAN-1103464","1299 LARKIN ST","10011103464","8139000","LARKIN ST: FRANK NORRIS ST - PINE ST","RENAISSANCE / METAL",,"NW","LARKIN ST","FRANK NORRIS ST","2015/04/09 12:00:00 AM",,"37.789808","-122.418908","4a0097c6-415f-4b0d-a3c7-086bec3b8589","127","POINT (-122.418908 37.789808)","Nob Hill","3","2026/01/21 12:00:00 AM","2026/02/14 09:35:07 AM"
"CAN-6101984","1839 GEARY BLVD","10516101984","6041103","GEARY BLVD: FILLMORE ST - STEINER ST","RENAISSANCE / METAL",,,"GEARY BLVD","FILLMORE ST","2018/04/06 12:00:00 AM",,"37.784026","-122.433461","2bb0bb53-2b44-476e-a43a-93bc678017c4","974","POINT (-122.433461 37.784026)","Western Addition","5","2025/08/08 12:00:00 AM","2026/02/14 09:35:07 AM"
"CAN-3361995","30TH AVE / BALBOA ST | CCAN","10513361995","27833000","30th Ave / Balboa St","RENAISSANCE / METAL",,"SW","30TH AVE","BALBOA ST","1999/01/15 12:00:00 AM",,"37.776058","-122.489815","3b850ff2-e218-4399-883b-7575266c6937","1908","POINT (-122.489815 37.776058)","Outer Richmond","1","2025/12/03 12:00:00 AM","2026/02/14 09:35:07 AM"
"CAN-5502745","1801 STEINER ST","10515502745","12136000","STEINER ST: SUTTER ST - BUSH ST","RENAISSANCE / METAL","green","NW","STEINER ST","SUTTER ST","2013/05/21 12:00:00 AM",,"37.786089","-122.435099","4ef06389-b4a4-48a1-b342-65f04b9bb766","723","POINT (-122.435099 37.786089)","Pacific Heights","2","2026/01/09 12:00:00 AM","2026/02/14 09:35:07 AM"
"CAN-3420312","241 ONEIDA AVE","10513420312","9947000","ONEIDA AVE: OTSEGO AVE - DELANO AVE","CEMENT / CONCRETE",,"S","ONEIDA AVE","OTSEGO AVE","1999/05/01 12:00:00 AM",,"37.72182","-122.442843","ad38b019-ea14-4473-8998-957a2f43d9f3","552","POINT (-122.442843 37.72182)","Outer Mission","11","2026/01/30 12:00:00 AM","2026/02/14 09:35:07 AM"
"CAN-6824916","4500 3rd St","10516824916","20224000","03rd St / La Salle Ave","CEMENT / CONCRETE","Green","NW","03RD ST","LA SALLE AVE","2024/04/02 12:00:00 AM",,"37.73717","-122.389864","7000e8ed-87f3-4071-b0ad-b85305ae7afb","2767","POINT (-122.389864 37.73717)","Bayview Hunters Point","10","2025/12/20 12:00:00 AM","2026/02/14 09:35:07 AM"
"CAN-5707310","2801 CALIFORNIA ST","10515707310","3562000","CALIFORNIA ST: DIVISADERO ST - BRODERICK ST","RENAISSANCE / METAL","green","W","CALIFORNIA ST","DIVISADERO ST","2014/12/01 12:00:00 AM",,"37.787879","-122.44074","b1300af8-5eeb-45f8-8674-a9bbbd31d3aa","793","POINT (-122.44074 37.787879)","Pacific Heights","2","2025/12/27 12:00:00 AM","2026/02/14 09:35:07 AM"
"CAN-604991","602 FRONT ST","1001604991","5872000","FRONT ST: JACKSON ST - PACIFIC AVE","RENAISSANCE / METAL",,,"FRONT ST","JACKSON ST","2000/01/01 12:00:00 AM",,"37.796978","-122.399448","6cdfa680-a1dc-4c98-bc06-2b747b26e370","949","POINT (-122.399448 37.796978)","Financial District/South Beach","3","2025/08/08 12:00:00 AM","2026/02/14 09:35:07 AM"
"CAN-6091573","1201 CLEMENT ST | CCAN","10516091573","04162000","CLEMENT ST: FUNSTON AVE - PARK PRESIDIO BLVD","RENAISSANCE / METAL",,"SW","CLEMENT ST","FUNSTON AVE","2018/02/24 12:00:00 AM",,"37.78251","-122.472049","eea43f70-288a-4ce6-ad65-964e3c9be83e","2424","POINT (-122.472049 37.78251)","Inner Richmond","1","2026/02/09 12:00:00 AM","2026/02/14 09:35:07 AM"
"CAN-1332501","2900 VAN NESS AVE","10011332501","13171201","VAN NESS AVE: CHESTNUT ST - FRANCISCO ST","RENAISSANCE / METAL","green","NW","VAN NESS AVE","CHESTNUT ST","2023/02/24 12:00:00 AM",,"37.80245","-122.424433","2a19d9a5-7919-4ea8-b23b-a22c03106579","329","POINT (-122.424433 37.80245)","Russian Hill","2","2025/12/24 12:00:00 AM","2026/02/14 09:35:07 AM"
"CAN-1492511","375 WOODSIDE AVE","10511492511","13717101","WOODSIDE AVE: ULLOA ST - OSHAUGHNESSY BLVD \ PORTOLA","RENAISSANCE / METAL",,"N","WOODSIDE AVE","ULLOA ST","1988/01/01 12:00:00 AM",,"37.74573","-122.452167","d8e8ce45-83cc-48eb-b55a-0e18f430fb84","425","POINT (-122.452167 37.74573)","Twin Peaks","7","2026/01/30 12:00:00 AM","2026/02/14 09:35:07 AM"
"CAN-1308154","1301 VAN NESS AVE","10011308154","13155101","VAN NESS AVE: SUTTER ST - FERN ST","RENAISSANCE / METAL","green","NW","VAN NESS AVE","SUTTER ST","2022/03/08 12:00:00 AM",,"37.787772","-122.42204","a8d7cade-39a0-421d-8271-beda539581b6","298","POINT (-122.42204 37.787772)","Western Addition","2","2025/12/03 12:00:00 AM","2026/02/14 09:35:07 AM"
"CAN-5412580","1201 FUNSTON AVE","10515412580","5965000","FUNSTON AVE: LINCOLN WAY - IRVING ST","RENAISSANCE / METAL",,"NW","FUNSTON AVE","LINCOLN WAY","2012/08/16 12:00:00 AM",,"37.765476","-122.470848","5553728e-ce33-4c6d-a334-f9ef46870667","703","POINT (-122.470848 37.765476)","Inner Sunset","7","2026/01/10 12:00:00 AM","2026/02/14 09:35:07 AM"
"CAN-5765698","3201 ORTEGA ST","10515765698","10028000","ORTEGA ST: 39TH AVE - 40TH AVE","CEMENT / CONCRETE",,"S","ORTEGA ST","39TH AVE","2015/06/24 12:00:00 AM",,"37.75137","-122.497799","de09c4f4-476e-4d13-923c-cac9ad66845d","864","POINT (-122.497799 37.75137)","Sunset/Parkside","4","2026/01/21 12:00:00 AM","2026/02/14 09:35:07 AM"
"CAN-1244698","1699 STOCKTON ST","10011244698","12214000","STOCKTON ST: UNION ST - FILBERT ST","RENAISSANCE / METAL","green","W","STOCKTON ST","UNION ST","2020/04/03 12:00:00 AM",,"37.801335","-122.409432","14a002f7-cfb9-43d4-b679-9da28286c322","212","POINT (-122.409432 37.801335)","North Beach","3","2026/01/03 12:00:00 AM","2026/02/14 09:35:07 AM"
"CAN-6101216","11TH AVE / CALIFORNIA ST | CCAN","10516101216","27610000","11th Ave / California St","RENAISSANCE / METAL","green","NE","11TH AVE","CALIFORNIA ST","2018/04/06 12:00:00 AM",,"37.784573","-122.469908","d0f9ae8b-4a30-4419-916e-58ef544c4110","2431","POINT (-122.469908 37.784573)","Inner Richmond","1","2026/02/09 12:00:00 AM","2026/02/14 09:35:07 AM"
